[
    {
        "longitude": "135.5240926",
        "latitude": "34.65789994",
        "address": "",
        "category": "公衆トイレ/公衆便所",
        "details": "便器数　　男性用　小：２　　男女兼用　和：１",
        "districtan": "天王寺区",
        "facility": "五条公園",
        "facility_and_kana": "五条公園（ごじょうこうえん）",
        "facility_kana": "ごじょうこうえん",
        "large_class": "公衆トイレ",
        "short_class": "公衆便所"
    },
    {
        "longitude": "135.45428",
        "latitude": "34.64383192",
        "address": "",
        "category": "公衆トイレ/公衆便所",
        "details": "便器数　　男性用　小：１　　男女兼用　和：１",
        "districtan": "大正区",
        "facility": "鶴町北公園",
        "facility_and_kana": "鶴町北公園（つるまちきたこうえん）",
        "facility_kana": "つるまちきたこうえん",
        "large_class": "公衆トイレ",
        "short_class": "公衆便所"
    },
    {
        "longitude": "135.5486893",
        "latitude": "34.66864056",
        "address": "",
        "category": "公衆トイレ/公衆便所",
        "details": "便器数　　男性用　和：１　小：２　　女性用　和：１",
        "districtan": "東成区",
        "facility": "大今里公園",
        "facility_and_kana": "大今里公園（おおいまざとこうえん）",
        "facility_kana": "おおいまざとこうえん",
        "large_class": "公衆トイレ",
        "short_class": "公衆便所"
    },
    {
        "longitude": "135.5176806",
        "latitude": "34.69202178",
        "address": "",
        "category": "公衆トイレ/公衆便所",
        "details": "便器数　　男性用　和：１　小：２　　女性用　和：２",
        "districtan": "北区",
        "facility": "毛馬桜之宮公園",
        "facility_and_kana": "毛馬桜之宮公園（けまさくらのみやこうえん）",
        "facility_kana": "けまさくらのみやこうえん",
        "large_class": "公衆トイレ",
        "short_class": "公衆便所"
    },
    {
        "longitude": "135.5218921",
        "latitude": "34.62301483",
        "address": "",
        "category": "公衆トイレ/公衆便所",
        "details": "便器数　　男性用　小：２　　男女兼用　和：１",
        "districtan": "東住吉区",
        "facility": "山坂公園",
        "facility_and_kana": "山坂公園（やまさかこうえん）",
        "facility_kana": "やまさかこうえん",
        "large_class": "公衆トイレ",
        "short_class": "公衆便所"
    },
    {
        "longitude": "135.526354",
        "latitude": "34.738932",
        "address": "東淀川区菅原３丁目３−１２",
        "category": "公衆トイレ/公衆便所",
        "details": "",
        "districtan": "東淀川区",
        "facility": "菅原公園　公衆トイレ",
        "facility_and_kana": "菅原公園　公衆トイレ（すがはらこうえん　こうしゅうといれ）",
        "facility_kana": "すがはらこうえん　こうしゅうといれ",
        "large_class": "公衆トイレ",
        "short_class": "公衆便所"
    },
    {
        "longitude": "135.4021355",
        "latitude": "34.63704092",
        "address": "",
        "category": "公衆トイレ/公衆便所",
        "details": "【男性用】和：1　小：2　【女性用】和：1",
        "districtan": "住之江区",
        "facility": "野鳥園臨港緑地（公衆便所）",
        "facility_and_kana": "野鳥園臨港緑地（公衆便所）（やちょうえんりんこうりょくちこうしゅうべんじょ）",
        "facility_kana": "やちょうえんりんこうりょくちこうしゅうべんじょ",
        "large_class": "公衆トイレ",
        "short_class": "公衆便所"
    },
    {
        "longitude": "135.4028726",
        "latitude": "34.61215186",
        "address": "",
        "category": "公衆トイレ/公衆便所",
        "details": "【男性用】和：1　小：2　【女性用】和：2",
        "districtan": "住之江区",
        "facility": "南港魚つり園護岸（公衆便所）",
        "facility_and_kana": "南港魚つり園護岸（公衆便所）（なんこううおつりえんごがんこうしゅうべんじょ）",
        "facility_kana": "なんこううおつりえんごがんこうしゅうべんじょ",
        "large_class": "公衆トイレ",
        "short_class": "公衆便所"
    },
    {
        "longitude": "135.4018242",
        "latitude": "34.61484003",
        "address": "",
        "category": "公衆トイレ/公衆便所",
        "details": "【男性用】小：2　【男女兼用】和：1",
        "districtan": "住之江区",
        "facility": "南港魚つり園護岸（公衆便所）",
        "facility_and_kana": "南港魚つり園護岸（公衆便所）（なんこううおつりえんごがんこうしゅうべんじょ）",
        "facility_kana": "なんこううおつりえんごがんこうしゅうべんじょ",
        "large_class": "公衆トイレ",
        "short_class": "公衆便所"
    },
    {
        "longitude": "135.5128452",
        "latitude": "34.67039931",
        "address": "",
        "category": "公衆トイレ/公衆便所",
        "details": "",
        "districtan": "中央区",
        "facility": "瓦屋町　公衆トイレ2",
        "facility_and_kana": "瓦屋町　公衆トイレ2（かわらやまちこうえん　こうしゅうといれ2）",
        "facility_kana": "かわらやまちこうえん　こうしゅうといれ2",
        "large_class": "公衆トイレ",
        "short_class": "公衆便所"
    },
    {
        "longitude": "135.5509086",
        "latitude": "34.64793058",
        "address": "",
        "category": "公衆トイレ/公衆便所",
        "details": "",
        "districtan": "生野区",
        "facility": "巽大地公園　公衆トイレ",
        "facility_and_kana": "巽大地公園　公衆トイレ（たつみだいちこうえん　こうしゅうといれ）",
        "facility_kana": "たつみだいちこうえん　こうしゅうといれ",
        "large_class": "公衆トイレ",
        "short_class": "公衆便所"
    },
    {
        "longitude": "135.4927072",
        "latitude": "34.59673731",
        "address": "",
        "category": "公衆トイレ/公衆便所",
        "details": "",
        "districtan": "住吉区",
        "facility": "おりおの南公園　公衆トイレ",
        "facility_and_kana": "おりおの南公園　公衆トイレ（おりおのみなみこうえん　こうしゅうといれ）",
        "facility_kana": "おりおのみなみこうえん　こうしゅうといれ",
        "large_class": "公衆トイレ",
        "short_class": "公衆便所"
    },
    {
        "longitude": "135.491733",
        "latitude": "34.60236628",
        "address": "",
        "category": "公衆トイレ/公衆便所",
        "details": "",
        "districtan": "住吉区",
        "facility": "清水丘公園　公衆トイレ",
        "facility_and_kana": "清水丘公園　公衆トイレ（しみずがおかこうえん　こうしゅうといれ）",
        "facility_kana": "しみずがおかこうえん　こうしゅうといれ",
        "large_class": "公衆トイレ",
        "short_class": "公衆便所"
    },
    {
        "longitude": "135.4837391",
        "latitude": "34.61068428",
        "address": "",
        "category": "公衆トイレ/公衆便所",
        "details": "",
        "districtan": "住之江区",
        "facility": "浜口西公園　公衆トイレ",
        "facility_and_kana": "浜口西公園　公衆トイレ（はまぐちにしこうえん　こうしゅうといれ）",
        "facility_kana": "はまぐちにしこうえん　こうしゅうといれ",
        "large_class": "公衆トイレ",
        "short_class": "公衆便所"
    },
    {
        "longitude": "135.4333322",
        "latitude": "34.62967503",
        "address": "",
        "category": "公衆トイレ/公衆便所",
        "details": "",
        "districtan": "住之江区",
        "facility": "南港中央公園　公衆トイレ４",
        "facility_and_kana": "南港中央公園　公衆トイレ４（なんこうちゅうおうこうえん　こうしゅうといれ４）",
        "facility_kana": "なんこうちゅうおうこうえん　こうしゅうといれ４",
        "large_class": "公衆トイレ",
        "short_class": "公衆便所"
    },
    {
        "longitude": "135.4758234",
        "latitude": "34.62240681",
        "address": "",
        "category": "公衆トイレ/公衆便所",
        "details": "",
        "districtan": "住之江区",
        "facility": "北加賀屋公園　公衆トイレ",
        "facility_and_kana": "北加賀屋公園　公衆トイレ（きたかがやこうえん　こうしゅうといれ）",
        "facility_kana": "きたかがやこうえん　こうしゅうといれ",
        "large_class": "公衆トイレ",
        "short_class": "公衆便所"
    },
    {
        "longitude": "135.4924182",
        "latitude": "34.62774283",
        "address": "",
        "category": "公衆トイレ/公衆便所",
        "details": "便器数　　男性用　小：２　　男女兼用　和：１",
        "districtan": "西成区",
        "facility": "玉出公園",
        "facility_and_kana": "玉出公園（たまでこうえん）",
        "facility_kana": "たまでこうえん",
        "large_class": "公衆トイレ",
        "short_class": "公衆便所"
    },
    {
        "longitude": "135.4973257",
        "latitude": "34.63263314",
        "address": "",
        "category": "公衆トイレ/公衆便所",
        "details": "",
        "districtan": "西成区",
        "facility": "天下茶屋公園　公衆トイレ",
        "facility_and_kana": "天下茶屋公園　公衆トイレ（てんがちゃやこうえん　こうしゅうといれ）",
        "facility_kana": "てんがちゃやこうえん　こうしゅうといれ",
        "large_class": "公衆トイレ",
        "short_class": "公衆便所"
    },
    {
        "longitude": "135.4932664",
        "latitude": "34.63679333",
        "address": "",
        "category": "公衆トイレ/公衆便所",
        "details": "",
        "districtan": "西成区",
        "facility": "西皿池公園　公衆トイレ",
        "facility_and_kana": "西皿池公園　公衆トイレ（にしさらいけこうえん　こうしゅうといれ）",
        "facility_kana": "にしさらいけこうえん　こうしゅうといれ",
        "large_class": "公衆トイレ",
        "short_class": "公衆便所"
    },
    {
        "longitude": "135.4989043",
        "latitude": "34.64526456",
        "address": "",
        "category": "公衆トイレ/公衆便所",
        "details": "便器数　　男性用　小：５　　男女兼用　和：３",
        "districtan": "西成区",
        "facility": "萩之茶屋",
        "facility_and_kana": "萩之茶屋（はぎのちゃや）",
        "facility_kana": "はぎのちゃや",
        "large_class": "公衆トイレ",
        "short_class": "公衆便所"
    },
    {
        "longitude": "135.5282455",
        "latitude": "34.59954203",
        "address": "",
        "category": "公衆トイレ/公衆便所",
        "details": "",
        "districtan": "東住吉区",
        "facility": "矢田教育の森公園　公衆トイレ",
        "facility_and_kana": "矢田教育の森公園　公衆トイレ（やたきょういくのもりこうえん　こうしゅうといれ）",
        "facility_kana": "やたきょういくのもりこうえん　こうしゅうといれ",
        "large_class": "公衆トイレ",
        "short_class": "公衆便所"
    },
    {
        "longitude": "135.5327063",
        "latitude": "34.60095953",
        "address": "",
        "category": "公衆トイレ/公衆便所",
        "details": "",
        "districtan": "東住吉区",
        "facility": "矢田公園　公衆トイレ",
        "facility_and_kana": "矢田公園　公衆トイレ（やたこうえん　こうしゅうといれ）",
        "facility_kana": "やたこうえん　こうしゅうといれ",
        "large_class": "公衆トイレ",
        "short_class": "公衆便所"
    },
    {
        "longitude": "135.5344311",
        "latitude": "34.60837603",
        "address": "",
        "category": "公衆トイレ/公衆便所",
        "details": "",
        "districtan": "東住吉区",
        "facility": "照ヶ丘矢田公園　公衆トイレ",
        "facility_and_kana": "照ヶ丘矢田公園　公衆トイレ（てるがおかやたこうえん　こうしゅうといれ）",
        "facility_kana": "てるがおかやたこうえん　こうしゅうといれ",
        "large_class": "公衆トイレ",
        "short_class": "公衆便所"
    },
    {
        "longitude": "135.5010582",
        "latitude": "34.62000425",
        "address": "",
        "category": "公衆トイレ/公衆便所",
        "details": "",
        "districtan": "住吉区",
        "facility": "万代池公園　公衆トイレ２",
        "facility_and_kana": "万代池公園　公衆トイレ２（ばんだいいけこうえん　こうしゅうといれ２）",
        "facility_kana": "ばんだいいけこうえん　こうしゅうといれ２",
        "large_class": "公衆トイレ",
        "short_class": "公衆便所"
    },
    {
        "longitude": "135.5008332",
        "latitude": "34.6475995",
        "address": "",
        "category": "公衆トイレ/公衆便所",
        "details": "便器数　　男性用　小：２　　男女兼用　和：１",
        "districtan": "西成区",
        "facility": "萩之茶屋北公園",
        "facility_and_kana": "萩之茶屋北公園（はぎのちゃやきたこうえん）",
        "facility_kana": "はぎのちゃやきたこうえん",
        "large_class": "公衆トイレ",
        "short_class": "公衆便所"
    },
    {
        "longitude": "135.5008231",
        "latitude": "34.64586944",
        "address": "",
        "category": "公衆トイレ/公衆便所",
        "details": "便器数　　男性用　小：２　　男女兼用　和：１",
        "districtan": "西成区",
        "facility": "萩之茶屋中公園",
        "facility_and_kana": "萩之茶屋中公園（はぎのちゃやなかこうえん）",
        "facility_kana": "はぎのちゃやなかこうえん",
        "large_class": "公衆トイレ",
        "short_class": "公衆便所"
    },
    {
        "longitude": "135.5024596",
        "latitude": "34.64699756",
        "address": "",
        "category": "公衆トイレ/公衆便所",
        "details": "便器数　　男性用　小：２　　男女兼用　和：１",
        "districtan": "西成区",
        "facility": "東入船町",
        "facility_and_kana": "東入船町（ひがしいりふねちょう）",
        "facility_kana": "ひがしいりふねちょう",
        "large_class": "公衆トイレ",
        "short_class": "公衆便所"
    },
    {
        "longitude": "135.5021732",
        "latitude": "34.64579036",
        "address": "",
        "category": "公衆トイレ/公衆便所",
        "details": "便器数　　男性用　小：２　　男女兼用　和：１",
        "districtan": "西成区",
        "facility": "今池町",
        "facility_and_kana": "今池町（いまいけちょう）",
        "facility_kana": "いまいけちょう",
        "large_class": "公衆トイレ",
        "short_class": "公衆便所"
    },
    {
        "longitude": "135.5012724",
        "latitude": "34.64484589",
        "address": "",
        "category": "公衆トイレ/公衆便所",
        "details": "便器数　　男性用　小：５　　男女兼用　和：３",
        "districtan": "西成区",
        "facility": "萩之茶屋南公園",
        "facility_and_kana": "萩之茶屋南公園（はぎのちゃやみなみこうえん）",
        "facility_kana": "はぎのちゃやみなみこうえん",
        "large_class": "公衆トイレ",
        "short_class": "公衆便所"
    },
    {
        "longitude": "135.4487048",
        "latitude": "34.660045",
        "address": "",
        "category": "公衆トイレ/公衆便所",
        "details": "便器数　　男性用　小：３　　男女兼用　和：１",
        "districtan": "港区",
        "facility": "朝潮橋",
        "facility_and_kana": "朝潮橋（あさしおばし）",
        "facility_kana": "あさしおばし",
        "large_class": "公衆トイレ",
        "short_class": "公衆便所"
    },
    {
        "longitude": "135.4621304",
        "latitude": "34.65981519",
        "address": "",
        "category": "公衆トイレ/公衆便所",
        "details": "",
        "districtan": "港区",
        "facility": "市岡公園　公衆トイレ",
        "facility_and_kana": "市岡公園　公衆トイレ（いちおかこうえん　こうしゅうといれ）",
        "facility_kana": "いちおかこうえん　こうしゅうといれ",
        "large_class": "公衆トイレ",
        "short_class": "公衆便所"
    },
    {
        "longitude": "135.4812113",
        "latitude": "34.65043061",
        "address": "",
        "category": "公衆トイレ/公衆便所",
        "details": "",
        "districtan": "西成区",
        "facility": "北津守公園　公衆トイレ",
        "facility_and_kana": "北津守公園　公衆トイレ（きたつもりこうえん　こうしゅうといれ）",
        "facility_kana": "きたつもりこうえん　こうしゅうといれ",
        "large_class": "公衆トイレ",
        "short_class": "公衆便所"
    },
    {
        "longitude": "135.4785231",
        "latitude": "34.65967961",
        "address": "",
        "category": "公衆トイレ/公衆便所",
        "details": "",
        "districtan": "大正区",
        "facility": "三軒家公園　公衆トイレ",
        "facility_and_kana": "三軒家公園　公衆トイレ（さんげんやこうえん　こうしゅうといれ）",
        "facility_kana": "さんげんやこうえん　こうしゅうといれ",
        "large_class": "公衆トイレ",
        "short_class": "公衆便所"
    },
    {
        "longitude": "135.4831031",
        "latitude": "34.66245083",
        "address": "",
        "category": "公衆トイレ/公衆便所",
        "details": "",
        "districtan": "浪速区",
        "facility": "芦原公園　公衆トイレ１",
        "facility_and_kana": "芦原公園　公衆トイレ１（あしはらこうえん　こうしゅうといれ１）",
        "facility_kana": "あしはらこうえん　こうしゅうといれ１",
        "large_class": "公衆トイレ",
        "short_class": "公衆便所"
    },
    {
        "longitude": "135.4838382",
        "latitude": "34.66153533",
        "address": "",
        "category": "公衆トイレ/公衆便所",
        "details": "",
        "districtan": "浪速区",
        "facility": "芦原公園　公衆トイレ２",
        "facility_and_kana": "芦原公園　公衆トイレ２（あしはらこうえん　こうしゅうといれ２）",
        "facility_kana": "あしはらこうえん　こうしゅうといれ２",
        "large_class": "公衆トイレ",
        "short_class": "公衆便所"
    },
    {
        "longitude": "135.4923474",
        "latitude": "34.65902494",
        "address": "",
        "category": "公衆トイレ/公衆便所",
        "details": "",
        "districtan": "浪速区",
        "facility": "塩草公園　公衆トイレ",
        "facility_and_kana": "塩草公園　公衆トイレ（しおくさこうえん　こうしゅうといれ）",
        "facility_kana": "しおくさこうえん　こうしゅうといれ",
        "large_class": "公衆トイレ",
        "short_class": "公衆便所"
    },
    {
        "longitude": "135.4580516",
        "latitude": "34.66505458",
        "address": "",
        "category": "公衆トイレ/公衆便所",
        "details": "",
        "districtan": "港区",
        "facility": "磯路中央公園　公衆トイレ２",
        "facility_and_kana": "磯路中央公園　公衆トイレ２（いそじちゅうおうこうえん　こうしゅうといれ２）",
        "facility_kana": "いそじちゅうおうこうえん　こうしゅうといれ２",
        "large_class": "公衆トイレ",
        "short_class": "公衆便所"
    },
    {
        "longitude": "135.4608698",
        "latitude": "34.67437253",
        "address": "",
        "category": "公衆トイレ/公衆便所",
        "details": "",
        "districtan": "港区",
        "facility": "波除公園　公衆トイレ２",
        "facility_and_kana": "波除公園　公衆トイレ２（なみよけこうえん　こうしゅうといれ２）",
        "facility_kana": "なみよけこうえん　こうしゅうといれ２",
        "large_class": "公衆トイレ",
        "short_class": "公衆便所"
    },
    {
        "longitude": "135.4720424",
        "latitude": "34.67552797",
        "address": "",
        "category": "公衆トイレ/公衆便所",
        "details": "",
        "districtan": "西区",
        "facility": "九条東公園　公衆トイレ",
        "facility_and_kana": "九条東公園　公衆トイレ（くじょうひがしこうえん　こうしゅうといれ）",
        "facility_kana": "くじょうひがしこうえん　こうしゅうといれ",
        "large_class": "公衆トイレ",
        "short_class": "公衆便所"
    },
    {
        "longitude": "135.4814336",
        "latitude": "34.67675725",
        "address": "",
        "category": "公衆トイレ/公衆便所",
        "details": "",
        "districtan": "西区",
        "facility": "松島公園　公衆トイレ１",
        "facility_and_kana": "松島公園　公衆トイレ１（まつしまこうえん　こうしゅうといれ１）",
        "facility_kana": "まつしまこうえん　こうしゅうといれ１",
        "large_class": "公衆トイレ",
        "short_class": "公衆便所"
    },
    {
        "longitude": "135.4272618",
        "latitude": "34.70004794",
        "address": "",
        "category": "公衆トイレ/公衆便所",
        "details": "",
        "districtan": "西淀川区",
        "facility": "中島公園　公衆トイレ２",
        "facility_and_kana": "中島公園　公衆トイレ２（なかじまこうえん　こうしゅうといれ２）",
        "facility_kana": "なかじまこうえん　こうしゅうといれ２",
        "large_class": "公衆トイレ",
        "short_class": "公衆便所"
    },
    {
        "longitude": "135.4465792",
        "latitude": "34.70134775",
        "address": "",
        "category": "公衆トイレ/公衆便所",
        "details": "",
        "districtan": "西淀川区",
        "facility": "西姫島公園　公衆トイレ",
        "facility_and_kana": "西姫島公園　公衆トイレ（にしひめじまこうえん　こうしゅうといれ）",
        "facility_kana": "にしひめじまこうえん　こうしゅうといれ",
        "large_class": "公衆トイレ",
        "short_class": "公衆便所"
    },
    {
        "longitude": "135.4676463",
        "latitude": "34.67895575",
        "address": "",
        "category": "公衆トイレ/公衆便所",
        "details": "便器数　　男性用　小：２　　男女兼用　和：１",
        "districtan": "西区",
        "facility": "安治川トンネル南口",
        "facility_and_kana": "安治川トンネル南口（あじがわとんねるみなみぐち）",
        "facility_kana": "あじがわとんねるみなみぐち",
        "large_class": "公衆トイレ",
        "short_class": "公衆便所"
    },
    {
        "longitude": "135.4659006",
        "latitude": "34.6821315",
        "address": "",
        "category": "公衆トイレ/公衆便所",
        "details": "便器数　　男性用　小：３　　男女兼用　和：１",
        "districtan": "此花区",
        "facility": "西九条駅前",
        "facility_and_kana": "西九条駅前（にしくじょうえきまえ）",
        "facility_kana": "にしくじょうえきまえ",
        "large_class": "公衆トイレ",
        "short_class": "公衆便所"
    },
    {
        "longitude": "135.4856101",
        "latitude": "34.67962025",
        "address": "",
        "category": "公衆トイレ/公衆便所",
        "details": "",
        "districtan": "西区",
        "facility": "島津公園　公衆トイレ",
        "facility_and_kana": "島津公園　公衆トイレ（しまづこうえん　こうしゅうといれ）",
        "facility_kana": "しまづこうえん　こうしゅうといれ",
        "large_class": "公衆トイレ",
        "short_class": "公衆便所"
    },
    {
        "longitude": "135.4836846",
        "latitude": "34.68640553",
        "address": "",
        "category": "公衆トイレ/公衆便所",
        "details": "",
        "districtan": "北区",
        "facility": "中之島西公園　公衆トイレ",
        "facility_and_kana": "中之島西公園　公衆トイレ（なかのしまにしこうえん　こうしゅうといれ）",
        "facility_kana": "なかのしまにしこうえん　こうしゅうといれ",
        "large_class": "公衆トイレ",
        "short_class": "公衆便所"
    },
    {
        "longitude": "135.4988968",
        "latitude": "34.68760511",
        "address": "",
        "category": "公衆トイレ/公衆便所",
        "details": "便器数　　男性用　小：２　　男女兼用　和：１",
        "districtan": "中央区",
        "facility": "御霊神社横",
        "facility_and_kana": "御霊神社横（ごりょうじんじゃよこ）",
        "facility_kana": "ごりょうじんじゃよこ",
        "large_class": "公衆トイレ",
        "short_class": "公衆便所"
    },
    {
        "longitude": "135.5057622",
        "latitude": "34.64882514",
        "address": "",
        "category": "公衆トイレ/公衆便所",
        "details": "便器数　　男性用　小：４　　男女兼用　和：１",
        "districtan": "西成区",
        "facility": "天王寺公園南口",
        "facility_and_kana": "天王寺公園南口（てんのうじこうえんみなみぐち）",
        "facility_kana": "てんのうじこうえんみなみぐち",
        "large_class": "公衆トイレ",
        "short_class": "公衆便所"
    },
    {
        "longitude": "135.5127805",
        "latitude": "34.64849961",
        "address": "",
        "category": "公衆トイレ/公衆便所",
        "details": "便器数　　男性用　和：２　小：３　　女性用　和：３",
        "districtan": "天王寺区",
        "facility": "茶臼山",
        "facility_and_kana": "茶臼山（ちゃうすやま）",
        "facility_kana": "ちゃうすやま",
        "large_class": "公衆トイレ",
        "short_class": "公衆便所"
    },
    {
        "longitude": "135.505961",
        "latitude": "34.65252414",
        "address": "",
        "category": "公衆トイレ/公衆便所",
        "details": "便器数　　男性用　小：２　　男女兼用　和：２",
        "districtan": "浪速区",
        "facility": "新世界",
        "facility_and_kana": "新世界（しんせかい）",
        "facility_kana": "しんせかい",
        "large_class": "公衆トイレ",
        "short_class": "公衆便所"
    },
    {
        "longitude": "135.5020661",
        "latitude": "34.65375156",
        "address": "",
        "category": "公衆トイレ/公衆便所",
        "details": "",
        "districtan": "浪速区",
        "facility": "恵美公園　公衆トイレ",
        "facility_and_kana": "恵美公園　公衆トイレ（えみこうえん　こうしゅうといれ）",
        "facility_kana": "えみこうえん　こうしゅうといれ",
        "large_class": "公衆トイレ",
        "short_class": "公衆便所"
    },
    {
        "longitude": "135.5129934",
        "latitude": "34.66589097",
        "address": "",
        "category": "公衆トイレ/公衆便所",
        "details": "便器数　　男性用　小：２　　男女兼用　和：１",
        "districtan": "天王寺区",
        "facility": "生玉町",
        "facility_and_kana": "生玉町（いくたまちょう）",
        "facility_kana": "いくたまちょう",
        "large_class": "公衆トイレ",
        "short_class": "公衆便所"
    },
    {
        "longitude": "135.5012259",
        "latitude": "34.66890542",
        "address": "中央区道頓堀1-10",
        "category": "公衆トイレ/公衆便所",
        "details": "便器数　　男性用　洋：１　小：２　　女性用　洋：１",
        "districtan": "中央区",
        "facility": "戎橋",
        "facility_and_kana": "戎橋（えびすばし）",
        "facility_kana": "えびすばし",
        "large_class": "公衆トイレ",
        "short_class": "公衆便所"
    },
    {
        "longitude": "135.527375",
        "latitude": "34.66971258",
        "address": "",
        "category": "公衆トイレ/公衆便所",
        "details": "",
        "districtan": "天王寺区",
        "facility": "真田山公園　公衆トイレ２",
        "facility_and_kana": "真田山公園　公衆トイレ２（さなだやまこうえん　こうしゅうといれ２）",
        "facility_kana": "さなだやまこうえん　こうしゅうといれ２",
        "large_class": "公衆トイレ",
        "short_class": "公衆便所"
    },
    {
        "longitude": "135.5111818",
        "latitude": "34.67358019",
        "address": "",
        "category": "公衆トイレ/公衆便所",
        "details": "便器数　　男性用　小：２　　男女兼用　和：１",
        "districtan": "中央区",
        "facility": "九之助橋",
        "facility_and_kana": "九之助橋（くのすけばし）",
        "facility_kana": "くのすけばし",
        "large_class": "公衆トイレ",
        "short_class": "公衆便所"
    },
    {
        "longitude": "135.5127017",
        "latitude": "34.67039342",
        "address": "",
        "category": "公衆トイレ/公衆便所",
        "details": "",
        "districtan": "中央区",
        "facility": "瓦屋町公園　公衆トイレ１",
        "facility_and_kana": "瓦屋町公園　公衆トイレ１（かわらやまちこうえん　こうしゅうといれ１）",
        "facility_kana": "かわらやまちこうえん　こうしゅうといれ１",
        "large_class": "公衆トイレ",
        "short_class": "公衆便所"
    },
    {
        "longitude": "135.5137581",
        "latitude": "34.67386683",
        "address": "",
        "category": "公衆トイレ/公衆便所",
        "details": "便器数　　男性用　小：１",
        "districtan": "中央区",
        "facility": "空堀通",
        "facility_and_kana": "空堀通（からほりどおり）",
        "facility_kana": "からほりどおり",
        "large_class": "公衆トイレ",
        "short_class": "公衆便所"
    },
    {
        "longitude": "135.5294993",
        "latitude": "34.67270031",
        "address": "",
        "category": "公衆トイレ/公衆便所",
        "details": "",
        "districtan": "天王寺区",
        "facility": "宰相山公園　公衆トイレ",
        "facility_and_kana": "宰相山公園　公衆トイレ（さいしょうやまこうえん　こうしゅうといれ）",
        "facility_kana": "さいしょうやまこうえん　こうしゅうといれ",
        "large_class": "公衆トイレ",
        "short_class": "公衆便所"
    },
    {
        "longitude": "135.5448787",
        "latitude": "34.67590472",
        "address": "",
        "category": "公衆トイレ/公衆便所",
        "details": "",
        "districtan": "東成区",
        "facility": "東中元公園　公衆トイレ",
        "facility_and_kana": "東中元公園　公衆トイレ（ひがしなかもとこうえん　こうしゅうといれ）",
        "facility_kana": "ひがしなかもとこうえん　こうしゅうといれ",
        "large_class": "公衆トイレ",
        "short_class": "公衆便所"
    },
    {
        "longitude": "135.5592144",
        "latitude": "34.67391744",
        "address": "",
        "category": "公衆トイレ/公衆便所",
        "details": "",
        "districtan": "東成区",
        "facility": "深江公園　公衆トイレ",
        "facility_and_kana": "深江公園　公衆トイレ（ふかえこうえん　こうしゅうといれ）",
        "facility_kana": "ふかえこうえん　こうしゅうといれ",
        "large_class": "公衆トイレ",
        "short_class": "公衆便所"
    },
    {
        "longitude": "135.5114789",
        "latitude": "34.69041158",
        "address": "",
        "category": "公衆トイレ/公衆便所",
        "details": "便器数　　男性用　小：２　　男女兼用　和：１",
        "districtan": "中央区",
        "facility": "天神橋南",
        "facility_and_kana": "天神橋南（てんじんばしみなみ）",
        "facility_kana": "てんじんばしみなみ",
        "large_class": "公衆トイレ",
        "short_class": "公衆便所"
    },
    {
        "longitude": "135.5143827",
        "latitude": "34.69205833",
        "address": "",
        "category": "公衆トイレ/公衆便所",
        "details": "",
        "districtan": "旭区",
        "facility": "南天満公園　公衆トイレ２",
        "facility_and_kana": "南天満公園　公衆トイレ２（みなみてんまこうえん　こうしゅうといれ２）",
        "facility_kana": "みなみてんまこうえん　こうしゅうといれ２",
        "large_class": "公衆トイレ",
        "short_class": "公衆便所"
    },
    {
        "longitude": "135.4441847",
        "latitude": "34.70828636",
        "address": "",
        "category": "公衆トイレ/公衆便所",
        "details": "",
        "districtan": "西淀川区",
        "facility": "大和田北公園　公衆トイレ",
        "facility_and_kana": "大和田北公園　公衆トイレ（おおわだきたこうえん　こうしゅうといれ）",
        "facility_kana": "おおわだきたこうえん　こうしゅうといれ",
        "large_class": "公衆トイレ",
        "short_class": "公衆便所"
    },
    {
        "longitude": "135.4610739",
        "latitude": "34.71352194",
        "address": "",
        "category": "公衆トイレ/公衆便所",
        "details": "",
        "districtan": "西淀川区",
        "facility": "北之町公園　公衆トイレ",
        "facility_and_kana": "北之町公園　公衆トイレ（きたのまちこうえん　こうしゅうといれ）",
        "facility_kana": "きたのまちこうえん　こうしゅうといれ",
        "large_class": "公衆トイレ",
        "short_class": "公衆便所"
    },
    {
        "longitude": "135.4636995",
        "latitude": "34.72010214",
        "address": "",
        "category": "公衆トイレ/公衆便所",
        "details": "",
        "districtan": "淀川区",
        "facility": "田川公園　公衆トイレ",
        "facility_and_kana": "田川公園　公衆トイレ（たがわこうえん　こうしゅうといれ）",
        "facility_kana": "たがわこうえん　こうしゅうといれ",
        "large_class": "公衆トイレ",
        "short_class": "公衆便所"
    },
    {
        "longitude": "135.4768798",
        "latitude": "34.71726456",
        "address": "",
        "category": "公衆トイレ/公衆便所",
        "details": "",
        "districtan": "淀川区",
        "facility": "十三公園　公衆トイレ２",
        "facility_and_kana": "十三公園　公衆トイレ２（じゅうそうこうえん　こうしゅうといれ２）",
        "facility_kana": "じゅうそうこうえん　こうしゅうといれ２",
        "large_class": "公衆トイレ",
        "short_class": "公衆便所"
    },
    {
        "longitude": "135.4983693",
        "latitude": "34.71475031",
        "address": "",
        "category": "公衆トイレ/公衆便所",
        "details": "",
        "districtan": "北区",
        "facility": "中津公園　公衆トイレ",
        "facility_and_kana": "中津公園　公衆トイレ（なかつこうえんこうしゅうといれ）",
        "facility_kana": "なかつこうえんこうしゅうといれ",
        "large_class": "公衆トイレ",
        "short_class": "公衆便所"
    },
    {
        "longitude": "135.5246787",
        "latitude": "34.71923789",
        "address": "",
        "category": "公衆トイレ/公衆便所",
        "details": "",
        "districtan": "都島区",
        "facility": "友渕中央公園　公衆トイレ",
        "facility_and_kana": "友渕中央公園　公衆トイレ（ともぶちちゅうおうこうえん　こうしゅうといれ）",
        "facility_kana": "ともぶちちゅうおうこうえん　こうしゅうといれ",
        "large_class": "公衆トイレ",
        "short_class": "公衆便所"
    },
    {
        "longitude": "135.5398903",
        "latitude": "34.71042458",
        "address": "",
        "category": "公衆トイレ/公衆便所",
        "details": "便器数　　男性用　和：１　小：２　　女性用　和：２",
        "districtan": "城東区",
        "facility": "野江",
        "facility_and_kana": "野江（のえ）",
        "facility_kana": "のえ",
        "large_class": "公衆トイレ",
        "short_class": "公衆便所"
    },
    {
        "longitude": "135.55479",
        "latitude": "34.72427083",
        "address": "",
        "category": "公衆トイレ/公衆便所",
        "details": "便器数　　男性用　小：４　　男女兼用　和：２",
        "districtan": "旭区",
        "facility": "千林町",
        "facility_and_kana": "千林町（せんばやしちょう）",
        "facility_kana": "せんばやしちょう",
        "large_class": "公衆トイレ",
        "short_class": "公衆便所"
    },
    {
        "longitude": "135.5384203",
        "latitude": "34.74938531",
        "address": "",
        "category": "公衆トイレ/公衆便所",
        "details": "",
        "districtan": "東淀川区",
        "facility": "瑞光寺公園　公衆トイレ",
        "facility_and_kana": "瑞光寺公園　公衆トイレ（ずいこうじこうえん　こうしゅうといれ）",
        "facility_kana": "ずいこうじこうえん　こうしゅうといれ",
        "large_class": "公衆トイレ",
        "short_class": "公衆便所"
    },
    {
        "longitude": "135.5437866",
        "latitude": "34.70927147",
        "address": "",
        "category": "公衆トイレ/公衆便所",
        "details": "",
        "districtan": "城東区",
        "facility": "成育公園　公衆トイレ",
        "facility_and_kana": "成育公園　公衆トイレ（）",
        "facility_kana": "",
        "large_class": "公衆トイレ",
        "short_class": "公衆便所"
    },
    {
        "longitude": "135.5398728",
        "latitude": "34.71795422",
        "address": "",
        "category": "公衆トイレ/公衆便所",
        "details": "",
        "districtan": "旭区",
        "facility": "旭公園　公衆トイレ３",
        "facility_and_kana": "旭公園　公衆トイレ３（）",
        "facility_kana": "",
        "large_class": "公衆トイレ",
        "short_class": "公衆便所"
    },
    {
        "longitude": "135.5423468",
        "latitude": "34.72358419",
        "address": "",
        "category": "公衆トイレ/公衆便所",
        "details": "",
        "districtan": "旭区",
        "facility": "江野公園　公衆トイレ",
        "facility_and_kana": "江野公園　公衆トイレ（）",
        "facility_kana": "",
        "large_class": "公衆トイレ",
        "short_class": "公衆便所"
    },
    {
        "longitude": "135.5399133",
        "latitude": "34.73021122",
        "address": "",
        "category": "公衆トイレ/公衆便所",
        "details": "",
        "districtan": "旭区",
        "facility": "城北公園　公衆トイレ５",
        "facility_and_kana": "城北公園　公衆トイレ５（）",
        "facility_kana": "",
        "large_class": "公衆トイレ",
        "short_class": "公衆便所"
    },
    {
        "longitude": "135.5421319",
        "latitude": "34.67427317",
        "address": "",
        "category": "公衆トイレ/車いす対応公衆便所",
        "details": "便器数　　男性用　小：２　　男女兼用　和：１　　車椅子対応：１",
        "districtan": "東成区",
        "facility": "南中本公園",
        "facility_and_kana": "南中本公園（みなみなかもとこうえん）",
        "facility_kana": "みなみなかもとこうえん",
        "large_class": "公衆トイレ",
        "short_class": "車いす対応公衆便所"
    },
    {
        "longitude": "135.4633418",
        "latitude": "34.70876489",
        "address": "",
        "category": "公衆トイレ/車いす対応公衆便所",
        "details": "便器数　　男性用　小：２　　男女兼用　和：１　　車椅子対応：１",
        "districtan": "西淀川区",
        "facility": "野里公園",
        "facility_and_kana": "野里公園（のざとこうえん）",
        "facility_kana": "のざとこうえん",
        "large_class": "公衆トイレ",
        "short_class": "車いす対応公衆便所"
    },
    {
        "longitude": "135.5597797",
        "latitude": "34.62332236",
        "address": "",
        "category": "公衆トイレ/車いす対応公衆便所",
        "details": "便器数　　男性用　小：２　　男女兼用　和：１　　車椅子対応：１",
        "districtan": "平野区",
        "facility": "平野公園",
        "facility_and_kana": "平野公園（ひらのこうえん）",
        "facility_kana": "ひらのこうえん",
        "large_class": "公衆トイレ",
        "short_class": "車いす対応公衆便所"
    },
    {
        "longitude": "135.5305025",
        "latitude": "34.705904",
        "address": "",
        "category": "公衆トイレ/車いす対応公衆便所",
        "details": "便器数　　男性用　小：２　　男女兼用　和：１　　車椅子対応：１",
        "districtan": "都島区",
        "facility": "都島公園",
        "facility_and_kana": "都島公園（みやこじまこうえん）",
        "facility_kana": "みやこじまこうえん",
        "large_class": "公衆トイレ",
        "short_class": "車いす対応公衆便所"
    },
    {
        "longitude": "135.462509",
        "latitude": "34.669526",
        "address": "",
        "category": "公衆トイレ/車いす対応公衆便所",
        "details": "便器数　男性用　大：１　小：２　身１（オストメイト有）",
        "districtan": "港区",
        "facility": "弁天町",
        "facility_and_kana": "弁天町（べんてんちょう）",
        "facility_kana": "べんてんちょう",
        "large_class": "公衆トイレ",
        "short_class": "車いす対応公衆便所"
    },
    {
        "longitude": "135.520086",
        "latitude": "34.718185",
        "address": "都島区毛馬町１丁目１２ 城北公園通",
        "category": "公衆トイレ/車いす対応公衆便所",
        "details": "",
        "districtan": "都島区",
        "facility": "蕪村公園　公衆トイレ",
        "facility_and_kana": "蕪村公園　公衆トイレ（ぶそんこうえん　こうしゅうといれ）",
        "facility_kana": "ぶそんこうえん　こうしゅうといれ",
        "large_class": "公衆トイレ",
        "short_class": "車いす対応公衆便所"
    },
    {
        "longitude": "135.56748",
        "latitude": "34.711777",
        "address": "鶴見区緑３丁目１６−５８",
        "category": "公衆トイレ/車いす対応公衆便所",
        "details": "",
        "districtan": "鶴見区",
        "facility": "花博記念公園鶴見緑地　公衆トイレ２６",
        "facility_and_kana": "花博記念公園鶴見緑地　公衆トイレ２６（はなはくきねんこうえんつるみりょくち　こうしゅうといれ２６）",
        "facility_kana": "はなはくきねんこうえんつるみりょくち　こうしゅうといれ２６",
        "large_class": "公衆トイレ",
        "short_class": "車いす対応公衆便所"
    },
    {
        "longitude": "135.570136",
        "latitude": "34.709877",
        "address": "鶴見区横堤４丁目２９−６０",
        "category": "公衆トイレ/車いす対応公衆便所",
        "details": "",
        "districtan": "鶴見区",
        "facility": "花博記念公園鶴見緑地　公衆トイレ２５",
        "facility_and_kana": "花博記念公園鶴見緑地　公衆トイレ２５（はなはくきねんこうえんつるみりょくち　こうしゅうといれ２５）",
        "facility_kana": "はなはくきねんこうえんつるみりょくち　こうしゅうといれ２５",
        "large_class": "公衆トイレ",
        "short_class": "車いす対応公衆便所"
    },
    {
        "longitude": "135.57984",
        "latitude": "34.712977",
        "address": "鶴見区緑地公園２−１１０",
        "category": "公衆トイレ/車いす対応公衆便所",
        "details": "",
        "districtan": "鶴見区",
        "facility": "花博記念公園鶴見緑地　公衆トイレ２４",
        "facility_and_kana": "花博記念公園鶴見緑地　公衆トイレ２４（はなはくきねんこうえんつるみりょくち　こうしゅうといれ２４）",
        "facility_kana": "はなはくきねんこうえんつるみりょくち　こうしゅうといれ２４",
        "large_class": "公衆トイレ",
        "short_class": "車いす対応公衆便所"
    },
    {
        "longitude": "135.574347",
        "latitude": "34.71086",
        "address": "鶴見区緑地公園２−１６３",
        "category": "公衆トイレ/車いす対応公衆便所",
        "details": "",
        "districtan": "鶴見区",
        "facility": "花博記念公園鶴見緑地　公衆トイレ２３",
        "facility_and_kana": "花博記念公園鶴見緑地　公衆トイレ２３（はなはくきねんこうえんつるみりょくち　こうしゅうといれ２３）",
        "facility_kana": "はなはくきねんこうえんつるみりょくち　こうしゅうといれ２３",
        "large_class": "公衆トイレ",
        "short_class": "車いす対応公衆便所"
    },
    {
        "longitude": "135.580392",
        "latitude": "34.705612",
        "address": "鶴見区浜１丁目１ 府道8号線",
        "category": "公衆トイレ/車いす対応公衆便所",
        "details": "",
        "districtan": "鶴見区",
        "facility": "花博記念公園鶴見緑地　公衆トイレ２２",
        "facility_and_kana": "花博記念公園鶴見緑地　公衆トイレ２２（はなはくきねんこうえんつるみりょくち　こうしゅうといれ２２）",
        "facility_kana": "はなはくきねんこうえんつるみりょくち　こうしゅうといれ２２",
        "large_class": "公衆トイレ",
        "short_class": "車いす対応公衆便所"
    },
    {
        "longitude": "135.58057",
        "latitude": "34.707328",
        "address": "鶴見区浜１丁目２−６",
        "category": "公衆トイレ/車いす対応公衆便所",
        "details": "",
        "districtan": "鶴見区",
        "facility": "花博記念公園鶴見緑地　公衆トイレ２１",
        "facility_and_kana": "花博記念公園鶴見緑地　公衆トイレ２１（はなはくきねんこうえんつるみりょくち　こうしゅうといれ２１）",
        "facility_kana": "はなはくきねんこうえんつるみりょくち　こうしゅうといれ２１",
        "large_class": "公衆トイレ",
        "short_class": "車いす対応公衆便所"
    },
    {
        "longitude": "135.576412",
        "latitude": "34.716006",
        "address": "守口市南寺方東通４丁目２９−１０",
        "category": "公衆トイレ/車いす対応公衆便所",
        "details": "",
        "districtan": "大阪市以外",
        "facility": "花博記念公園鶴見緑地　公衆トイレ２０",
        "facility_and_kana": "花博記念公園鶴見緑地　公衆トイレ２０（はなはくきねんこうえんつるみりょくち　こうしゅうといれ２０）",
        "facility_kana": "はなはくきねんこうえんつるみりょくち　こうしゅうといれ２０",
        "large_class": "公衆トイレ",
        "short_class": "車いす対応公衆便所"
    },
    {
        "longitude": "135.56983",
        "latitude": "34.714397",
        "address": "鶴見区緑３丁目１４−１９",
        "category": "公衆トイレ/車いす対応公衆便所",
        "details": "",
        "districtan": "鶴見区",
        "facility": "花博記念公園鶴見緑地　公衆トイレ１９",
        "facility_and_kana": "花博記念公園鶴見緑地　公衆トイレ１９（はなはくきねんこうえんつるみりょくち　こうしゅうといれ１９）",
        "facility_kana": "はなはくきねんこうえんつるみりょくち　こうしゅうといれ１９",
        "large_class": "公衆トイレ",
        "short_class": "車いす対応公衆便所"
    },
    {
        "longitude": "135.580376",
        "latitude": "34.714348",
        "address": "鶴見区浜５丁目２−１４",
        "category": "公衆トイレ/車いす対応公衆便所",
        "details": "",
        "districtan": "鶴見区",
        "facility": "花博記念公園鶴見緑地　公衆トイレ１８",
        "facility_and_kana": "花博記念公園鶴見緑地　公衆トイレ１８（はなはくきねんこうえんつるみりょくち　こうしゅうといれ１８）",
        "facility_kana": "はなはくきねんこうえんつるみりょくち　こうしゅうといれ１８",
        "large_class": "公衆トイレ",
        "short_class": "車いす対応公衆便所"
    },
    {
        "longitude": "135.458357",
        "latitude": "34.719207",
        "address": "西淀川区御幣島５丁目２−１５",
        "category": "公衆トイレ/車いす対応公衆便所",
        "details": "",
        "districtan": "西淀川区",
        "facility": "歌島公園　公衆トイレ",
        "facility_and_kana": "歌島公園　公衆トイレ（うたじまこうえん　こうしゅうといれ）",
        "facility_kana": "うたじまこうえん　こうしゅうといれ",
        "large_class": "公衆トイレ",
        "short_class": "車いす対応公衆便所"
    },
    {
        "longitude": "135.556524",
        "latitude": "34.718088",
        "address": "旭区新森４丁目２２−３２",
        "category": "公衆トイレ/車いす対応公衆便所",
        "details": "",
        "districtan": "旭区",
        "facility": "新森中央公園　公衆トイレ",
        "facility_and_kana": "新森中央公園　公衆トイレ（しんもりちゅうおうこうえん　こうしゅうといれ）",
        "facility_kana": "しんもりちゅうおうこうえん　こうしゅうといれ",
        "large_class": "公衆トイレ",
        "short_class": "車いす対応公衆便所"
    },
    {
        "longitude": "135.52722",
        "latitude": "34.682651",
        "address": "中央区大阪城３−１５",
        "category": "公衆トイレ/車いす対応公衆便所",
        "details": "",
        "districtan": "中央区",
        "facility": "大阪城公園　公衆トイレ１０",
        "facility_and_kana": "大阪城公園　公衆トイレ１０（おおさかじょうこうえん　こうしゅうといれ１０）",
        "facility_kana": "おおさかじょうこうえん　こうしゅうといれ１０",
        "large_class": "公衆トイレ",
        "short_class": "車いす対応公衆便所"
    },
    {
        "longitude": "135.421343",
        "latitude": "34.702159",
        "address": "西淀川区中島２丁目３−８７",
        "category": "公衆トイレ/車いす対応公衆便所",
        "details": "",
        "districtan": "西淀川区",
        "facility": "中島公園　公衆トイレ４",
        "facility_and_kana": "中島公園　公衆トイレ４（なかじまこうえん　こうしゅうといれ４）",
        "facility_kana": "なかじまこうえん　こうしゅうといれ４",
        "large_class": "公衆トイレ",
        "short_class": "車いす対応公衆便所"
    },
    {
        "longitude": "135.423574",
        "latitude": "34.700942",
        "address": "西淀川区中島１丁目３５−１０４",
        "category": "公衆トイレ/車いす対応公衆便所",
        "details": "",
        "districtan": "西淀川区",
        "facility": "中島公園　公衆トイレ３",
        "facility_and_kana": "中島公園　公衆トイレ３（なかじまこうえん　こうしゅうといれ３）",
        "facility_kana": "なかじまこうえん　こうしゅうといれ３",
        "large_class": "公衆トイレ",
        "short_class": "車いす対応公衆便所"
    },
    {
        "longitude": "135.4010481",
        "latitude": "34.63473119",
        "address": "",
        "category": "公衆トイレ/車いす対応公衆便所",
        "details": "【男性用】洋：1　和：1　小：3　【女性用】洋：1　和：2　【障がい者用】洋：1",
        "districtan": "住之江区",
        "facility": "野鳥園臨港緑地（公衆便所）",
        "facility_and_kana": "野鳥園臨港緑地（公衆便所）（やちょうえんりんこうりょくちこうしゅうべんじょ）",
        "facility_kana": "やちょうえんりんこうりょくちこうしゅうべんじょ",
        "large_class": "公衆トイレ",
        "short_class": "車いす対応公衆便所"
    },
    {
        "longitude": "135.4113731",
        "latitude": "34.67564728",
        "address": "",
        "category": "公衆トイレ/車いす対応公衆便所",
        "details": "【男性用】和：1　小：2　【女性用】和：2　【障がい者用】洋：1",
        "districtan": "此花区",
        "facility": "常吉西臨港緑地（公衆便所）",
        "facility_and_kana": "常吉西臨港緑地（公衆便所）（つねよしにしりんこうりょくちこうしゅうべんじょ）",
        "facility_kana": "つねよしにしりんこうりょくちこうしゅうべんじょ",
        "large_class": "公衆トイレ",
        "short_class": "車いす対応公衆便所"
    },
    {
        "longitude": "135.4096955",
        "latitude": "34.67276014",
        "address": "",
        "category": "公衆トイレ/車いす対応公衆便所",
        "details": "【男性用】和：1　小：2　【女性用】和：2　【障がい者用】洋：1",
        "districtan": "此花区",
        "facility": "常吉西臨港緑地（公衆便所）",
        "facility_and_kana": "常吉西臨港緑地（公衆便所）（つねよしにしりんこうりょくちこうしゅうべんじょ）",
        "facility_kana": "つねよしにしりんこうりょくちこうしゅうべんじょ",
        "large_class": "公衆トイレ",
        "short_class": "車いす対応公衆便所"
    },
    {
        "longitude": "135.4310503",
        "latitude": "34.65610508",
        "address": "大阪市港区海岸通１",
        "category": "公衆トイレ/車いす対応公衆便所",
        "details": "【男性用】和：1　小：2　【女性用】和：2　【障がい者用】洋：1",
        "districtan": "港区",
        "facility": "天保山ハーバービレッジ（公衆便所）",
        "facility_and_kana": "天保山ハーバービレッジ（公衆便所）（てんぽうざんはーばーびれっじこうしゅうべんじょ）",
        "facility_kana": "てんぽうざんはーばーびれっじこうしゅうべんじょ",
        "large_class": "公衆トイレ",
        "short_class": "車いす対応公衆便所"
    },
    {
        "longitude": "135.4470434",
        "latitude": "34.66174186",
        "address": "",
        "category": "公衆トイレ/車いす対応公衆便所",
        "details": "",
        "districtan": "港区",
        "facility": "八幡屋公園　公衆トイレ１",
        "facility_and_kana": "八幡屋公園　公衆トイレ１（）",
        "facility_kana": "",
        "large_class": "公衆トイレ",
        "short_class": "車いす対応公衆便所"
    },
    {
        "longitude": "135.4478681",
        "latitude": "34.65752975",
        "address": "",
        "category": "公衆トイレ/車いす対応公衆便所",
        "details": "",
        "districtan": "港区",
        "facility": "入船公園　公衆トイレ",
        "facility_and_kana": "入船公園　公衆トイレ（いりふねこうえん　こうしゅうといれ）",
        "facility_kana": "いりふねこうえん　こうしゅうといれ",
        "large_class": "公衆トイレ",
        "short_class": "車いす対応公衆便所"
    },
    {
        "longitude": "135.4699073",
        "latitude": "34.60704",
        "address": "",
        "category": "公衆トイレ/車いす対応公衆便所",
        "details": "",
        "districtan": "住之江区",
        "facility": "新北島東公園　公衆トイレ",
        "facility_and_kana": "新北島東公園　公衆トイレ（しんきたじまひがしこうえん　こうしゅうといれ）",
        "facility_kana": "しんきたじまひがしこうえん　こうしゅうといれ",
        "large_class": "公衆トイレ",
        "short_class": "車いす対応公衆便所"
    },
    {
        "longitude": "135.4793356",
        "latitude": "34.60310756",
        "address": "",
        "category": "公衆トイレ/車いす対応公衆便所",
        "details": "",
        "districtan": "住之江区",
        "facility": "敷津浦東公園　公衆トイレ",
        "facility_and_kana": "敷津浦東公園　公衆トイレ（しきつうらひがしこうえん　こうしゅうといれ）",
        "facility_kana": "しきつうらひがしこうえん　こうしゅうといれ",
        "large_class": "公衆トイレ",
        "short_class": "車いす対応公衆便所"
    },
    {
        "longitude": "135.4841454",
        "latitude": "34.60823997",
        "address": "",
        "category": "公衆トイレ/車いす対応公衆便所",
        "details": "",
        "districtan": "住之江区",
        "facility": "浜口公園　公衆トイレ",
        "facility_and_kana": "浜口公園　公衆トイレ（はまぐちこうえん　こうしゅうといれ）",
        "facility_kana": "はまぐちこうえん　こうしゅうといれ",
        "large_class": "公衆トイレ",
        "short_class": "車いす対応公衆便所"
    },
    {
        "longitude": "135.4299231",
        "latitude": "34.63112675",
        "address": "大阪市住之江区南港中２−１",
        "category": "公衆トイレ/車いす対応公衆便所",
        "details": "障害者用トイレあり",
        "districtan": "住之江区",
        "facility": "ポートタウン東駅前公衆トイレ",
        "facility_and_kana": "ポートタウン東駅前公衆トイレ（ぽーとたうんひがしえきまえこうしゅうといれ）",
        "facility_kana": "ぽーとたうんひがしえきまえこうしゅうといれ",
        "large_class": "公衆トイレ",
        "short_class": "車いす対応公衆便所"
    },
    {
        "longitude": "135.4313548",
        "latitude": "34.63173917",
        "address": "",
        "category": "公衆トイレ/車いす対応公衆便所",
        "details": "",
        "districtan": "住之江区",
        "facility": "南港中央公園　公衆トイレ１",
        "facility_and_kana": "南港中央公園　公衆トイレ１（なんこうちゅうおうこうえん　こうしゅうといれ１）",
        "facility_kana": "なんこうちゅうおうこうえん　こうしゅうといれ１",
        "large_class": "公衆トイレ",
        "short_class": "車いす対応公衆便所"
    },
    {
        "longitude": "135.4621627",
        "latitude": "34.61298064",
        "address": "",
        "category": "公衆トイレ/車いす対応公衆便所",
        "details": "",
        "districtan": "住之江区",
        "facility": "平林泉公園　公衆トイレ",
        "facility_and_kana": "平林泉公園　公衆トイレ（ひらばやしいずみこうえん　こうしゅうといれ）",
        "facility_kana": "ひらばやしいずみこうえん　こうしゅうといれ",
        "large_class": "公衆トイレ",
        "short_class": "車いす対応公衆便所"
    },
    {
        "longitude": "135.4658932",
        "latitude": "34.61729003",
        "address": "",
        "category": "公衆トイレ/車いす対応公衆便所",
        "details": "",
        "districtan": "住之江区",
        "facility": "柴谷公園　公衆トイレ",
        "facility_and_kana": "柴谷公園　公衆トイレ（しばたにこうえん　こうしゅうといれ）",
        "facility_kana": "しばたにこうえん　こうしゅうといれ",
        "large_class": "公衆トイレ",
        "short_class": "車いす対応公衆便所"
    },
    {
        "longitude": "135.4819268",
        "latitude": "34.61945758",
        "address": "",
        "category": "公衆トイレ/車いす対応公衆便所",
        "details": "",
        "districtan": "住之江区",
        "facility": "中加賀屋公園　公衆トイレ",
        "facility_and_kana": "中加賀屋公園　公衆トイレ（なかかがやこうえん　こうしゅうといれ）",
        "facility_kana": "なかかがやこうえん　こうしゅうといれ",
        "large_class": "公衆トイレ",
        "short_class": "車いす対応公衆便所"
    },
    {
        "longitude": "135.4345294",
        "latitude": "34.63103842",
        "address": "",
        "category": "公衆トイレ/車いす対応公衆便所",
        "details": "",
        "districtan": "住之江区",
        "facility": "南港中央公園　公衆トイレ３",
        "facility_and_kana": "南港中央公園　公衆トイレ３（なんこうちゅうおうこうえん　こうしゅうといれ３）",
        "facility_kana": "なんこうちゅうおうこうえん　こうしゅうといれ３",
        "large_class": "公衆トイレ",
        "short_class": "車いす対応公衆便所"
    },
    {
        "longitude": "135.4331011",
        "latitude": "34.63252486",
        "address": "",
        "category": "公衆トイレ/車いす対応公衆便所",
        "details": "",
        "districtan": "住之江区",
        "facility": "南港中央公園　公衆トイレ２",
        "facility_and_kana": "南港中央公園　公衆トイレ２（なんこうちゅうおうこうえん　こうしゅうといれ２）",
        "facility_kana": "なんこうちゅうおうこうえん　こうしゅうといれ２",
        "large_class": "公衆トイレ",
        "short_class": "車いす対応公衆便所"
    },
    {
        "longitude": "135.4555062",
        "latitude": "34.63617358",
        "address": "",
        "category": "公衆トイレ/車いす対応公衆便所",
        "details": "",
        "districtan": "大正区",
        "facility": "鶴町南公園　公衆トイレ",
        "facility_and_kana": "鶴町南公園　公衆トイレ（つるまちみなみこうえん　こうしゅうといれ）",
        "facility_kana": "つるまちみなみこうえん　こうしゅうといれ",
        "large_class": "公衆トイレ",
        "short_class": "車いす対応公衆便所"
    },
    {
        "longitude": "135.4833962",
        "latitude": "34.6257625",
        "address": "",
        "category": "公衆トイレ/車いす対応公衆便所",
        "details": "",
        "districtan": "西成区",
        "facility": "南津守中央公園　公衆トイレ",
        "facility_and_kana": "南津守中央公園　公衆トイレ（みなみつもりちゅうおうこうえん　こうしゅうといれ）",
        "facility_kana": "みなみつもりちゅうおうこうえん　こうしゅうといれ",
        "large_class": "公衆トイレ",
        "short_class": "車いす対応公衆便所"
    },
    {
        "longitude": "135.472161",
        "latitude": "34.634821",
        "address": "",
        "category": "公衆トイレ/車いす対応公衆便所",
        "details": "",
        "districtan": "大正区",
        "facility": "南恩加島公園　公衆トイレ",
        "facility_and_kana": "南恩加島公園　公衆トイレ（みなみおかじまこうえん　こうしゅうといれ）",
        "facility_kana": "みなみおかじまこうえん　こうしゅうといれ",
        "large_class": "公衆トイレ",
        "short_class": "車いす対応公衆便所"
    },
    {
        "longitude": "135.4836226",
        "latitude": "34.63597883",
        "address": "",
        "category": "公衆トイレ/車いす対応公衆便所",
        "details": "",
        "districtan": "西成区",
        "facility": "南津守さくら公園　公衆トイレ",
        "facility_and_kana": "南津守さくら公園　公衆トイレ（みなみつもりさくらこうえん　こうしゅうといれ）",
        "facility_kana": "みなみつもりさくらこうえん　こうしゅうといれ",
        "large_class": "公衆トイレ",
        "short_class": "車いす対応公衆便所"
    },
    {
        "longitude": "135.5005266",
        "latitude": "34.589055",
        "address": "",
        "category": "公衆トイレ/車いす対応公衆便所",
        "details": "",
        "districtan": "住吉区",
        "facility": "山之内西公園　公衆トイレ",
        "facility_and_kana": "山之内西公園　公衆トイレ（やまのうちにしこうえん　こうしゅうといれ）",
        "facility_kana": "やまのうちにしこうえん　こうしゅうといれ",
        "large_class": "公衆トイレ",
        "short_class": "車いす対応公衆便所"
    },
    {
        "longitude": "135.5101873",
        "latitude": "34.59077442",
        "address": "",
        "category": "公衆トイレ/車いす対応公衆便所",
        "details": "",
        "districtan": "住吉区",
        "facility": "浅香中央公園　公衆トイレ２",
        "facility_and_kana": "浅香中央公園　公衆トイレ２（あさかちゅうおうこうえん　こうしゅうといれ２）",
        "facility_kana": "あさかちゅうおうこうえん　こうしゅうといれ２",
        "large_class": "公衆トイレ",
        "short_class": "車いす対応公衆便所"
    },
    {
        "longitude": "135.5089423",
        "latitude": "34.5916315",
        "address": "",
        "category": "公衆トイレ/車いす対応公衆便所",
        "details": "",
        "districtan": "住吉区",
        "facility": "浅香中央公園　公衆トイレ１",
        "facility_and_kana": "浅香中央公園　公衆トイレ１（あさかちゅうおうこうえん　こうしゅうといれ１）",
        "facility_kana": "あさかちゅうおうこうえん　こうしゅうといれ１",
        "large_class": "公衆トイレ",
        "short_class": "車いす対応公衆便所"
    },
    {
        "longitude": "135.5015163",
        "latitude": "34.60388317",
        "address": "",
        "category": "公衆トイレ/車いす対応公衆便所",
        "details": "",
        "districtan": "住吉区",
        "facility": "沢之町公園　公衆トイレ",
        "facility_and_kana": "沢之町公園　公衆トイレ（さわのちょうこうえん　こうしゅうといれ）",
        "facility_kana": "さわのちょうこうえん　こうしゅうといれ",
        "large_class": "公衆トイレ",
        "short_class": "車いす対応公衆便所"
    },
    {
        "longitude": "135.5672225",
        "latitude": "34.59648625",
        "address": "",
        "category": "公衆トイレ/車いす対応公衆便所",
        "details": "",
        "districtan": "平野区",
        "facility": "川辺大和川公園　公衆トイレ",
        "facility_and_kana": "川辺大和川公園　公衆トイレ（かわなべやまとがわこうえん　こうしゅうといれ）",
        "facility_kana": "かわなべやまとがわこうえん　こうしゅうといれ",
        "large_class": "公衆トイレ",
        "short_class": "車いす対応公衆便所"
    },
    {
        "longitude": "135.5774006",
        "latitude": "34.60341478",
        "address": "",
        "category": "公衆トイレ/車いす対応公衆便所",
        "details": "",
        "districtan": "平野区",
        "facility": "長吉東部中央公園　公衆トイレ",
        "facility_and_kana": "長吉東部中央公園　公衆トイレ（ながよしとうぶちゅうおうこうえん　こうしゅうといれ）",
        "facility_kana": "ながよしとうぶちゅうおうこうえん　こうしゅうといれ",
        "large_class": "公衆トイレ",
        "short_class": "車いす対応公衆便所"
    },
    {
        "longitude": "135.5042955",
        "latitude": "34.61648053",
        "address": "",
        "category": "公衆トイレ/車いす対応公衆便所",
        "details": "",
        "districtan": "住吉区",
        "facility": "万領中央公園　公衆トイレ",
        "facility_and_kana": "万領中央公園　公衆トイレ（まんりょうちゅうおうこうえん　こうしゅうといれ）",
        "facility_kana": "まんりょうちゅうおうこうえん　こうしゅうといれ",
        "large_class": "公衆トイレ",
        "short_class": "車いす対応公衆便所"
    },
    {
        "longitude": "135.5035234",
        "latitude": "34.62038017",
        "address": "",
        "category": "公衆トイレ/車いす対応公衆便所",
        "details": "",
        "districtan": "住吉区",
        "facility": "万代池公園　公衆トイレ１",
        "facility_and_kana": "万代池公園　公衆トイレ１（ばんだいいけこうえん　こうしゅうといれ１）",
        "facility_kana": "ばんだいいけこうえん　こうしゅうといれ１",
        "large_class": "公衆トイレ",
        "short_class": "車いす対応公衆便所"
    },
    {
        "longitude": "135.519656",
        "latitude": "34.61141217",
        "address": "",
        "category": "公衆トイレ/車いす対応公衆便所",
        "details": "",
        "districtan": "東住吉区",
        "facility": "長居公園　公衆トイレ４",
        "facility_and_kana": "長居公園　公衆トイレ４（ながいこうえん　こうしゅうといれ４）",
        "facility_kana": "ながいこうえん　こうしゅうといれ４",
        "large_class": "公衆トイレ",
        "short_class": "車いす対応公衆便所"
    },
    {
        "longitude": "135.5146677",
        "latitude": "34.61022036",
        "address": "",
        "category": "公衆トイレ/車いす対応公衆便所",
        "details": "",
        "districtan": "東住吉区",
        "facility": "長居公園　公衆トイレ１",
        "facility_and_kana": "長居公園　公衆トイレ１（ながいこうえん　こうしゅうといれ１）",
        "facility_kana": "ながいこうえん　こうしゅうといれ１",
        "large_class": "公衆トイレ",
        "short_class": "車いす対応公衆便所"
    },
    {
        "longitude": "135.5156715",
        "latitude": "34.60973978",
        "address": "",
        "category": "公衆トイレ/車いす対応公衆便所",
        "details": "",
        "districtan": "東住吉区",
        "facility": "長居公園　公衆トイレ２",
        "facility_and_kana": "長居公園　公衆トイレ２（ながいこうえん　こうしゅうといれ２）",
        "facility_kana": "ながいこうえん　こうしゅうといれ２",
        "large_class": "公衆トイレ",
        "short_class": "車いす対応公衆便所"
    },
    {
        "longitude": "135.5206936",
        "latitude": "34.61112308",
        "address": "",
        "category": "公衆トイレ/車いす対応公衆便所",
        "details": "",
        "districtan": "東住吉区",
        "facility": "長居植物園　公衆トイレ１",
        "facility_and_kana": "長居植物園　公衆トイレ１（ながいしょくぶつえん　こうしゅうといれ１）",
        "facility_kana": "ながいしょくぶつえん　こうしゅうといれ１",
        "large_class": "公衆トイレ",
        "short_class": "車いす対応公衆便所"
    },
    {
        "longitude": "135.5260538",
        "latitude": "34.61285681",
        "address": "",
        "category": "公衆トイレ/車いす対応公衆便所",
        "details": "",
        "districtan": "天王寺区",
        "facility": "長居植物園　公衆トイレ３",
        "facility_and_kana": "長居植物園　公衆トイレ３（ながいしょくぶつえん　こうしゅうといれ３）",
        "facility_kana": "ながいしょくぶつえん　こうしゅうといれ３",
        "large_class": "公衆トイレ",
        "short_class": "車いす対応公衆便所"
    },
    {
        "longitude": "135.5253269",
        "latitude": "34.61001444",
        "address": "",
        "category": "公衆トイレ/車いす対応公衆便所",
        "details": "",
        "districtan": "東住吉区",
        "facility": "長居植物園　公衆トイレ２",
        "facility_and_kana": "長居植物園　公衆トイレ２（ながいしょくぶつえん　こうしゅうといれ２）",
        "facility_kana": "ながいしょくぶつえん　こうしゅうといれ２",
        "large_class": "公衆トイレ",
        "short_class": "車いす対応公衆便所"
    },
    {
        "longitude": "135.5264318",
        "latitude": "34.60990022",
        "address": "",
        "category": "公衆トイレ/車いす対応公衆便所",
        "details": "",
        "districtan": "東住吉区",
        "facility": "長居公園　公衆トイレ３",
        "facility_and_kana": "長居公園　公衆トイレ３（ながいこうえん　こうしゅうといれ３）",
        "facility_kana": "ながいこうえん　こうしゅうといれ３",
        "large_class": "公衆トイレ",
        "short_class": "車いす対応公衆便所"
    },
    {
        "longitude": "135.5196924",
        "latitude": "34.61330522",
        "address": "",
        "category": "公衆トイレ/車いす対応公衆便所",
        "details": "",
        "districtan": "東住吉区",
        "facility": "長居公園　公衆トイレ６",
        "facility_and_kana": "長居公園　公衆トイレ６（ながいこうえん　こうしゅうといれ６）",
        "facility_kana": "ながいこうえん　こうしゅうといれ６",
        "large_class": "公衆トイレ",
        "short_class": "車いす対応公衆便所"
    },
    {
        "longitude": "135.5242718",
        "latitude": "34.61460233",
        "address": "",
        "category": "公衆トイレ/車いす対応公衆便所",
        "details": "",
        "districtan": "東住吉区",
        "facility": "長居植物園　公衆トイレ４",
        "facility_and_kana": "長居植物園　公衆トイレ４（ながいしょくぶつえん　こうしゅうといれ４）",
        "facility_kana": "ながいしょくぶつえん　こうしゅうといれ４",
        "large_class": "公衆トイレ",
        "short_class": "車いす対応公衆便所"
    },
    {
        "longitude": "135.5238554",
        "latitude": "34.61350742",
        "address": "",
        "category": "公衆トイレ/車いす対応公衆便所",
        "details": "",
        "districtan": "天王寺区",
        "facility": "長居植物園　公衆トイレ５",
        "facility_and_kana": "長居植物園　公衆トイレ５（ながいしょくぶつえん　こうしゅうといれ５）",
        "facility_kana": "ながいしょくぶつえん　こうしゅうといれ５",
        "large_class": "公衆トイレ",
        "short_class": "車いす対応公衆便所"
    },
    {
        "longitude": "135.5263968",
        "latitude": "34.61477383",
        "address": "",
        "category": "公衆トイレ/車いす対応公衆便所",
        "details": "",
        "districtan": "東住吉区",
        "facility": "長居公園　公衆トイレ５",
        "facility_and_kana": "長居公園　公衆トイレ５（ながいこうえん　こうしゅうといれ５）",
        "facility_kana": "ながいこうえん　こうしゅうといれ５",
        "large_class": "公衆トイレ",
        "short_class": "車いす対応公衆便所"
    },
    {
        "longitude": "135.5187337",
        "latitude": "34.62320556",
        "address": "",
        "category": "公衆トイレ/車いす対応公衆便所",
        "details": "",
        "districtan": "阿倍野区",
        "facility": "長池公園　公衆トイレ",
        "facility_and_kana": "長池公園　公衆トイレ（ながいけこうえん　こうしゅうといれ）",
        "facility_kana": "ながいけこうえん　こうしゅうといれ",
        "large_class": "公衆トイレ",
        "short_class": "車いす対応公衆便所"
    },
    {
        "longitude": "135.4896256",
        "latitude": "34.62668061",
        "address": "",
        "category": "公衆トイレ/車いす対応公衆便所",
        "details": "",
        "districtan": "西成区",
        "facility": "玉出西公園　公衆トイレ",
        "facility_and_kana": "玉出西公園　公衆トイレ（たまでにしこうえん　こうしゅうといれ）",
        "facility_kana": "たまでにしこうえん　こうしゅうといれ",
        "large_class": "公衆トイレ",
        "short_class": "車いす対応公衆便所"
    },
    {
        "longitude": "135.5217554",
        "latitude": "34.63083072",
        "address": "",
        "category": "公衆トイレ/車いす対応公衆便所",
        "details": "",
        "districtan": "阿倍野区",
        "facility": "桃ヶ池公園　公衆トイレ",
        "facility_and_kana": "桃ヶ池公園　公衆トイレ（ももがいけこうえん　こうしゅうといれ）",
        "facility_kana": "ももがいけこうえん　こうしゅうといれ",
        "large_class": "公衆トイレ",
        "short_class": "車いす対応公衆便所"
    },
    {
        "longitude": "135.5346527",
        "latitude": "34.62647992",
        "address": "",
        "category": "公衆トイレ/車いす対応公衆便所",
        "details": "",
        "districtan": "東住吉区",
        "facility": "今川公園　公衆トイレ",
        "facility_and_kana": "今川公園　公衆トイレ（いまがわこうえん　こうしゅうといれ）",
        "facility_kana": "いまがわこうえん　こうしゅうといれ",
        "large_class": "公衆トイレ",
        "short_class": "車いす対応公衆便所"
    },
    {
        "longitude": "135.5347295",
        "latitude": "34.63122025",
        "address": "",
        "category": "公衆トイレ/車いす対応公衆便所",
        "details": "",
        "districtan": "東住吉区",
        "facility": "うるし堤公園　公衆トイレ",
        "facility_and_kana": "うるし堤公園　公衆トイレ（うるしつつみこうえん　こうしゅうといれ）",
        "facility_kana": "うるしつつみこうえん　こうしゅうといれ",
        "large_class": "公衆トイレ",
        "short_class": "車いす対応公衆便所"
    },
    {
        "longitude": "135.541161",
        "latitude": "34.613059",
        "address": "",
        "category": "公衆トイレ/車いす対応公衆便所",
        "details": "",
        "districtan": "平野区",
        "facility": "喜連西中央公園　公衆トイレ",
        "facility_and_kana": "喜連西中央公園　公衆トイレ（きれにしちゅうおうこうえん　こうしゅうといれ）",
        "facility_kana": "きれにしちゅうおうこうえん　こうしゅうといれ",
        "large_class": "公衆トイレ",
        "short_class": "車いす対応公衆便所"
    },
    {
        "longitude": "135.565336",
        "latitude": "34.61329375",
        "address": "",
        "category": "公衆トイレ/車いす対応公衆便所",
        "details": "",
        "districtan": "平野区",
        "facility": "長吉出戸公園　公衆トイレ",
        "facility_and_kana": "長吉出戸公園　公衆トイレ（ながよしでとこうえん　こうしゅうといれ）",
        "facility_kana": "ながよしでとこうえん　こうしゅうといれ",
        "large_class": "公衆トイレ",
        "short_class": "車いす対応公衆便所"
    },
    {
        "longitude": "135.5459829",
        "latitude": "34.61933042",
        "address": "",
        "category": "公衆トイレ/車いす対応公衆便所",
        "details": "",
        "districtan": "平野区",
        "facility": "平野西公園　公衆トイレ",
        "facility_and_kana": "平野西公園　公衆トイレ（ひらのにしこうえん　こうしゅうといれ）",
        "facility_kana": "ひらのにしこうえん　こうしゅうといれ",
        "large_class": "公衆トイレ",
        "short_class": "車いす対応公衆便所"
    },
    {
        "longitude": "135.5591181",
        "latitude": "34.62211961",
        "address": "",
        "category": "公衆トイレ/車いす対応公衆便所",
        "details": "",
        "districtan": "平野区",
        "facility": "平野公園　公衆トイレ",
        "facility_and_kana": "平野公園　公衆トイレ（ひらのこうえん　こうしゅうといれ）",
        "facility_kana": "ひらのこうえん　こうしゅうといれ",
        "large_class": "公衆トイレ",
        "short_class": "車いす対応公衆便所"
    },
    {
        "longitude": "135.5710028",
        "latitude": "34.62282708",
        "address": "",
        "category": "公衆トイレ/車いす対応公衆便所",
        "details": "",
        "districtan": "平野区",
        "facility": "鞍作公園　公衆トイレ",
        "facility_and_kana": "鞍作公園　公衆トイレ（くらつくりこうえん　こうしゅうといれ）",
        "facility_kana": "くらつくりこうえん　こうしゅうといれ",
        "large_class": "公衆トイレ",
        "short_class": "車いす対応公衆便所"
    },
    {
        "longitude": "135.5422201",
        "latitude": "34.62770772",
        "address": "",
        "category": "公衆トイレ/車いす対応公衆便所",
        "details": "",
        "districtan": "東住吉区",
        "facility": "平野白鷺公園　公衆トイレ１",
        "facility_and_kana": "平野白鷺公園　公衆トイレ１（ひらのしらさぎこうえん　こうしゅうといれ１）",
        "facility_kana": "ひらのしらさぎこうえん　こうしゅうといれ１",
        "large_class": "公衆トイレ",
        "short_class": "車いす対応公衆便所"
    },
    {
        "longitude": "135.5419884",
        "latitude": "34.62649544",
        "address": "",
        "category": "公衆トイレ/車いす対応公衆便所",
        "details": "",
        "districtan": "東住吉区",
        "facility": "平野白鷺公園　公衆トイレ２",
        "facility_and_kana": "平野白鷺公園　公衆トイレ２（ひらのしらさぎこうえん　こうしゅうといれ２）",
        "facility_kana": "ひらのしらさぎこうえん　こうしゅうといれ２",
        "large_class": "公衆トイレ",
        "short_class": "車いす対応公衆便所"
    },
    {
        "longitude": "135.5423576",
        "latitude": "34.63288372",
        "address": "",
        "category": "公衆トイレ/車いす対応公衆便所",
        "details": "",
        "districtan": "東住吉区",
        "facility": "育和公園　公衆トイレ",
        "facility_and_kana": "育和公園　公衆トイレ（いくわこうえん　こうしゅうといれ）",
        "facility_kana": "いくわこうえん　こうしゅうといれ",
        "large_class": "公衆トイレ",
        "short_class": "車いす対応公衆便所"
    },
    {
        "longitude": "135.4286659",
        "latitude": "34.65375006",
        "address": "",
        "category": "公衆トイレ/車いす対応公衆便所",
        "details": "【男性用】和：1　小：2　【女性用】和：2　【障がい者用】洋：1",
        "districtan": "港区",
        "facility": "天保山西岸壁　公衆トイレ",
        "facility_and_kana": "天保山西岸壁　公衆トイレ（てんぽうざんにしがんぺき　こうしゅうといれ）",
        "facility_kana": "てんぽうざんにしがんぺき　こうしゅうといれ",
        "large_class": "公衆トイレ",
        "short_class": "車いす対応公衆便所"
    },
    {
        "longitude": "135.4558687",
        "latitude": "34.63891861",
        "address": "",
        "category": "公衆トイレ/車いす対応公衆便所",
        "details": "",
        "districtan": "大正区",
        "facility": "鶴町中央公園　公衆トイレ",
        "facility_and_kana": "鶴町中央公園　公衆トイレ（つるまちちゅうおうこうえん　こうしゅうといれ）",
        "facility_kana": "つるまちちゅうおうこうえん　こうしゅうといれ",
        "large_class": "公衆トイレ",
        "short_class": "車いす対応公衆便所"
    },
    {
        "longitude": "135.4372796",
        "latitude": "34.65348183",
        "address": "",
        "category": "公衆トイレ/車いす対応公衆便所",
        "details": "",
        "districtan": "港区",
        "facility": "築港南公園　公衆トイレ",
        "facility_and_kana": "築港南公園　公衆トイレ（ちっこうみなみこうえん　こうしゅうといれ）",
        "facility_kana": "ちっこうみなみこうえん　こうしゅうといれ",
        "large_class": "公衆トイレ",
        "short_class": "車いす対応公衆便所"
    },
    {
        "longitude": "135.4729681",
        "latitude": "34.64076964",
        "address": "",
        "category": "公衆トイレ/車いす対応公衆便所",
        "details": "",
        "districtan": "大正区",
        "facility": "平尾公園　公衆トイレ",
        "facility_and_kana": "平尾公園　公衆トイレ（ひらおこうえん　こうしゅうといれ）",
        "facility_kana": "ひらおこうえん　こうしゅうといれ",
        "large_class": "公衆トイレ",
        "short_class": "車いす対応公衆便所"
    },
    {
        "longitude": "135.4745022",
        "latitude": "34.64354667",
        "address": "",
        "category": "公衆トイレ/車いす対応公衆便所",
        "details": "",
        "districtan": "大正区",
        "facility": "小林公園　公衆トイレ",
        "facility_and_kana": "小林公園　公衆トイレ（こばやしこうえん　こうしゅうといれ）",
        "facility_kana": "こばやしこうえん　こうしゅうといれ",
        "large_class": "公衆トイレ",
        "short_class": "車いす対応公衆便所"
    },
    {
        "longitude": "135.4820164",
        "latitude": "34.64616911",
        "address": "",
        "category": "公衆トイレ/車いす対応公衆便所",
        "details": "",
        "districtan": "西成区",
        "facility": "西成公園　公衆トイレ",
        "facility_and_kana": "西成公園　公衆トイレ（にしなりこうえん　こうしゅうといれ）",
        "facility_kana": "にしなりこうえん　こうしゅうといれ",
        "large_class": "公衆トイレ",
        "short_class": "車いす対応公衆便所"
    },
    {
        "longitude": "135.4720451",
        "latitude": "34.64933947",
        "address": "",
        "category": "公衆トイレ/車いす対応公衆便所",
        "details": "",
        "districtan": "大正区",
        "facility": "千島公園　公衆トイレ１",
        "facility_and_kana": "千島公園　公衆トイレ１（ちしまこうえん　こうしゅうといれ１）",
        "facility_kana": "ちしまこうえん　こうしゅうといれ１",
        "large_class": "公衆トイレ",
        "short_class": "車いす対応公衆便所"
    },
    {
        "longitude": "135.4672973",
        "latitude": "34.64904611",
        "address": "",
        "category": "公衆トイレ/車いす対応公衆便所",
        "details": "",
        "districtan": "大正区",
        "facility": "北村南公園　公衆トイレ",
        "facility_and_kana": "北村南公園　公衆トイレ（きたむらみなみこうえん　こうしゅうといれ）",
        "facility_kana": "きたむらみなみこうえん　こうしゅうといれ",
        "large_class": "公衆トイレ",
        "short_class": "車いす対応公衆便所"
    },
    {
        "longitude": "135.4739713",
        "latitude": "34.64988856",
        "address": "",
        "category": "公衆トイレ/車いす対応公衆便所",
        "details": "",
        "districtan": "大正区",
        "facility": "千島公園　公衆トイレ２",
        "facility_and_kana": "千島公園　公衆トイレ２（ちしまこうえん　こうしゅうといれ２）",
        "facility_kana": "ちしまこうえん　こうしゅうといれ２",
        "large_class": "公衆トイレ",
        "short_class": "車いす対応公衆便所"
    },
    {
        "longitude": "135.4737651",
        "latitude": "34.64790989",
        "address": "",
        "category": "公衆トイレ/車いす対応公衆便所",
        "details": "",
        "districtan": "大正区",
        "facility": "千島公園　公衆トイレ３",
        "facility_and_kana": "千島公園　公衆トイレ３（ちしまこうえん　こうしゅうといれ３）",
        "facility_kana": "ちしまこうえん　こうしゅうといれ３",
        "large_class": "公衆トイレ",
        "short_class": "車いす対応公衆便所"
    },
    {
        "longitude": "135.4763065",
        "latitude": "34.64824206",
        "address": "",
        "category": "公衆トイレ/車いす対応公衆便所",
        "details": "",
        "districtan": "大正区",
        "facility": "千島公園　公衆トイレ４",
        "facility_and_kana": "千島公園　公衆トイレ４（ちしまこうえん　こうしゅうといれ４）",
        "facility_kana": "ちしまこうえん　こうしゅうといれ４",
        "large_class": "公衆トイレ",
        "short_class": "車いす対応公衆便所"
    },
    {
        "longitude": "135.4330398",
        "latitude": "34.65714475",
        "address": "",
        "category": "公衆トイレ/車いす対応公衆便所",
        "details": "",
        "districtan": "港区",
        "facility": "天保山公園　公衆トイレ",
        "facility_and_kana": "天保山公園　公衆トイレ（てんぽうざんこうえん　こうしゅうといれ）",
        "facility_kana": "てんぽうざんこうえん　こうしゅうといれ",
        "large_class": "公衆トイレ",
        "short_class": "車いす対応公衆便所"
    },
    {
        "longitude": "135.445898",
        "latitude": "34.65967997",
        "address": "",
        "category": "公衆トイレ/車いす対応公衆便所",
        "details": "",
        "districtan": "港区",
        "facility": "八幡屋公園　公衆トイレ３",
        "facility_and_kana": "八幡屋公園　公衆トイレ３（やはたやこうえん　こうしゅうといれ３）",
        "facility_kana": "やはたやこうえん　こうしゅうといれ３",
        "large_class": "公衆トイレ",
        "short_class": "車いす対応公衆便所"
    },
    {
        "longitude": "135.4519563",
        "latitude": "34.65676494",
        "address": "",
        "category": "公衆トイレ/車いす対応公衆便所",
        "details": "",
        "districtan": "港区",
        "facility": "池島公園　公衆トイレ",
        "facility_and_kana": "池島公園　公衆トイレ（いけじまこうえん　こうしゅうといれ）",
        "facility_kana": "いけじまこうえん　こうしゅうといれ",
        "large_class": "公衆トイレ",
        "short_class": "車いす対応公衆便所"
    },
    {
        "longitude": "135.4473506",
        "latitude": "34.65967517",
        "address": "",
        "category": "公衆トイレ/車いす対応公衆便所",
        "details": "",
        "districtan": "港区",
        "facility": "八幡屋公園　公衆トイレ２",
        "facility_and_kana": "八幡屋公園　公衆トイレ２（やはたやこうえん　こうしゅうといれ２）",
        "facility_kana": "やはたやこうえん　こうしゅうといれ２",
        "large_class": "公衆トイレ",
        "short_class": "車いす対応公衆便所"
    },
    {
        "longitude": "135.4522089",
        "latitude": "34.65964453",
        "address": "",
        "category": "公衆トイレ/車いす対応公衆便所",
        "details": "",
        "districtan": "港区",
        "facility": "三先公園　公衆トイレ　",
        "facility_and_kana": "三先公園　公衆トイレ　（みさきこうえん　こうしゅうといれ）",
        "facility_kana": "みさきこうえん　こうしゅうといれ",
        "large_class": "公衆トイレ",
        "short_class": "車いす対応公衆便所"
    },
    {
        "longitude": "135.4519987",
        "latitude": "34.66276078",
        "address": "",
        "category": "公衆トイレ/車いす対応公衆便所",
        "details": "",
        "districtan": "港区",
        "facility": "夕凪公園　公衆トイレ",
        "facility_and_kana": "夕凪公園　公衆トイレ（ゆうなぎこうえん　こうしゅうといれ）",
        "facility_kana": "ゆうなぎこうえん　こうしゅうといれ",
        "large_class": "公衆トイレ",
        "short_class": "車いす対応公衆便所"
    },
    {
        "longitude": "135.4515264",
        "latitude": "34.66519608",
        "address": "",
        "category": "公衆トイレ/車いす対応公衆便所",
        "details": "",
        "districtan": "港区",
        "facility": "東田中公園　公衆トイレ",
        "facility_and_kana": "東田中公園　公衆トイレ（ひがしたなかこうえん　こうしゅうといれ）",
        "facility_kana": "ひがしたなかこうえん　こうしゅうといれ",
        "large_class": "公衆トイレ",
        "short_class": "車いす対応公衆便所"
    },
    {
        "longitude": "135.4683941",
        "latitude": "34.65594364",
        "address": "",
        "category": "公衆トイレ/車いす対応公衆便所",
        "details": "",
        "districtan": "大正区",
        "facility": "泉尾公園　公衆トイレ１",
        "facility_and_kana": "泉尾公園　公衆トイレ１（いずおこうえん　こうしゅうといれ１）",
        "facility_kana": "いずおこうえん　こうしゅうといれ１",
        "large_class": "公衆トイレ",
        "short_class": "車いす対応公衆便所"
    },
    {
        "longitude": "135.4684231",
        "latitude": "34.65779169",
        "address": "",
        "category": "公衆トイレ/車いす対応公衆便所",
        "details": "",
        "districtan": "大正区",
        "facility": "泉尾公園　公衆トイレ２",
        "facility_and_kana": "泉尾公園　公衆トイレ２（いずおこうえん　こうしゅうといれ２）",
        "facility_kana": "いずおこうえん　こうしゅうといれ２",
        "large_class": "公衆トイレ",
        "short_class": "車いす対応公衆便所"
    },
    {
        "longitude": "135.4645558",
        "latitude": "34.66741042",
        "address": "",
        "category": "公衆トイレ/車いす対応公衆便所",
        "details": "",
        "districtan": "港区",
        "facility": "市岡元町公園　公衆トイレ",
        "facility_and_kana": "市岡元町公園　公衆トイレ（いちおかもとまちこうえん　こうしゅうといれ）",
        "facility_kana": "いちおかもとまちこうえん　こうしゅうといれ",
        "large_class": "公衆トイレ",
        "short_class": "車いす対応公衆便所"
    },
    {
        "longitude": "135.4598639",
        "latitude": "34.66635275",
        "address": "",
        "category": "公衆トイレ/車いす対応公衆便所",
        "details": "",
        "districtan": "港区",
        "facility": "磯路中央公園　公衆トイレ１",
        "facility_and_kana": "磯路中央公園　公衆トイレ１（いそじちゅうおうこうえん　こうしゅうといれ１）",
        "facility_kana": "いそじちゅうおうこうえん　こうしゅうといれ１",
        "large_class": "公衆トイレ",
        "short_class": "車いす対応公衆便所"
    },
    {
        "longitude": "135.4798591",
        "latitude": "34.66680233",
        "address": "",
        "category": "公衆トイレ/車いす対応公衆便所",
        "details": "便器数　　男性用　小：２　　男女兼用　和：１　　車椅子対応：１",
        "districtan": "大正区",
        "facility": "大正橋",
        "facility_and_kana": "大正橋（たいしょうばし）",
        "facility_kana": "たいしょうばし",
        "large_class": "公衆トイレ",
        "short_class": "車いす対応公衆便所"
    },
    {
        "longitude": "135.4183766",
        "latitude": "34.68777797",
        "address": "",
        "category": "公衆トイレ/車いす対応公衆便所",
        "details": "",
        "districtan": "西淀川区",
        "facility": "矢倉緑地公園　公衆トイレ",
        "facility_and_kana": "矢倉緑地公園　公衆トイレ（やくらりょくちこうえん　こうしゅうといれ）",
        "facility_kana": "やくらりょくちこうえん　こうしゅうといれ",
        "large_class": "公衆トイレ",
        "short_class": "車いす対応公衆便所"
    },
    {
        "longitude": "135.4576743",
        "latitude": "34.67938164",
        "address": "",
        "category": "公衆トイレ/車いす対応公衆便所",
        "details": "",
        "districtan": "此花区",
        "facility": "春日出公園　公衆トイレ",
        "facility_and_kana": "春日出公園　公衆トイレ（かすがでこうえん　こうしゅうといれ）",
        "facility_kana": "かすがでこうえん　こうしゅうといれ",
        "large_class": "公衆トイレ",
        "short_class": "車いす対応公衆便所"
    },
    {
        "longitude": "135.4507557",
        "latitude": "34.68234906",
        "address": "",
        "category": "公衆トイレ/車いす対応公衆便所",
        "details": "",
        "districtan": "此花区",
        "facility": "此花公園　公衆トイレ",
        "facility_and_kana": "此花公園　公衆トイレ（このはなこうえん　こうしゅうといれ）",
        "facility_kana": "このはなこうえん　こうしゅうといれ",
        "large_class": "公衆トイレ",
        "short_class": "車いす対応公衆便所"
    },
    {
        "longitude": "135.4556894",
        "latitude": "34.68118189",
        "address": "",
        "category": "公衆トイレ/車いす対応公衆便所",
        "details": "",
        "districtan": "此花区",
        "facility": "梅香公園　公衆トイレ",
        "facility_and_kana": "梅香公園　公衆トイレ（ばいかこうえん　こうしゅうといれ）",
        "facility_kana": "ばいかこうえん　こうしゅうといれ",
        "large_class": "公衆トイレ",
        "short_class": "車いす対応公衆便所"
    },
    {
        "longitude": "135.4597353",
        "latitude": "34.68225892",
        "address": "",
        "category": "公衆トイレ/車いす対応公衆便所",
        "details": "",
        "districtan": "此花区",
        "facility": "梅香東公園　公衆トイレ",
        "facility_and_kana": "梅香東公園　公衆トイレ（ばいかひがしこうえん　こうしゅうといれ）",
        "facility_kana": "ばいかひがしこうえん　こうしゅうといれ",
        "large_class": "公衆トイレ",
        "short_class": "車いす対応公衆便所"
    },
    {
        "longitude": "135.4601415",
        "latitude": "34.67418339",
        "address": "",
        "category": "公衆トイレ/車いす対応公衆便所",
        "details": "",
        "districtan": "港区",
        "facility": "波除公園　公衆トイレ１",
        "facility_and_kana": "波除公園　公衆トイレ１（なみよけこうえん　こうしゅうといれ１）",
        "facility_kana": "なみよけこうえん　こうしゅうといれ１",
        "large_class": "公衆トイレ",
        "short_class": "車いす対応公衆便所"
    },
    {
        "longitude": "135.4675344",
        "latitude": "34.67557044",
        "address": "",
        "category": "公衆トイレ/車いす対応公衆便所",
        "details": "",
        "districtan": "西区",
        "facility": "九条北公園　公衆トイレ",
        "facility_and_kana": "九条北公園　公衆トイレ（くじょうきたこうえん　こうしゅうといれ）",
        "facility_kana": "くじょうきたこうえん　こうしゅうといれ",
        "large_class": "公衆トイレ",
        "short_class": "車いす対応公衆便所"
    },
    {
        "longitude": "135.4847093",
        "latitude": "34.67084369",
        "address": "",
        "category": "公衆トイレ/車いす対応公衆便所",
        "details": "",
        "districtan": "西区",
        "facility": "日吉公園　公衆トイレ",
        "facility_and_kana": "日吉公園　公衆トイレ（ひよしこうえん　こうしゅうといれ）",
        "facility_kana": "ひよしこうえん　こうしゅうといれ",
        "large_class": "公衆トイレ",
        "short_class": "車いす対応公衆便所"
    },
    {
        "longitude": "135.4638848",
        "latitude": "34.68193353",
        "address": "",
        "category": "公衆トイレ/車いす対応公衆便所",
        "details": "",
        "districtan": "此花区",
        "facility": "西九条西公園　公衆トイレ",
        "facility_and_kana": "西九条西公園　公衆トイレ（にしくじょうにしこうえん　こうしゅうといれ）",
        "facility_kana": "にしくじょうにしこうえん　こうしゅうといれ",
        "large_class": "公衆トイレ",
        "short_class": "車いす対応公衆便所"
    },
    {
        "longitude": "135.462251",
        "latitude": "34.68150839",
        "address": "",
        "category": "公衆トイレ/車いす対応公衆便所",
        "details": "",
        "districtan": "此花区",
        "facility": "旭橋公園　公衆トイレ",
        "facility_and_kana": "旭橋公園　公衆トイレ（あさひばしこうえん　こうしゅうといれ）",
        "facility_kana": "あさひばしこうえん　こうしゅうといれ",
        "large_class": "公衆トイレ",
        "short_class": "車いす対応公衆便所"
    },
    {
        "longitude": "135.4802943",
        "latitude": "34.67695303",
        "address": "",
        "category": "公衆トイレ/車いす対応公衆便所",
        "details": "",
        "districtan": "西区",
        "facility": "松島公園　公衆トイレ２",
        "facility_and_kana": "松島公園　公衆トイレ２（まつしまこうえん　こうしゅうといれ２）",
        "facility_kana": "まつしまこうえん　こうしゅうといれ２",
        "large_class": "公衆トイレ",
        "short_class": "車いす対応公衆便所"
    },
    {
        "longitude": "135.4513021",
        "latitude": "34.68871236",
        "address": "",
        "category": "公衆トイレ/車いす対応公衆便所",
        "details": "",
        "districtan": "此花区",
        "facility": "伝法公園　公衆トイレ",
        "facility_and_kana": "伝法公園　公衆トイレ（でんぽうこうえん　こうしゅうといれ）",
        "facility_kana": "でんぽうこうえん　こうしゅうといれ",
        "large_class": "公衆トイレ",
        "short_class": "車いす対応公衆便所"
    },
    {
        "longitude": "135.4550946",
        "latitude": "34.68777833",
        "address": "",
        "category": "公衆トイレ/車いす対応公衆便所",
        "details": "",
        "districtan": "此花区",
        "facility": "伝法東公園　公衆トイレ",
        "facility_and_kana": "伝法東公園　公衆トイレ（でんぽうひがしこうえん　こうしゅうといれ）",
        "facility_kana": "でんぽうひがしこうえん　こうしゅうといれ",
        "large_class": "公衆トイレ",
        "short_class": "車いす対応公衆便所"
    },
    {
        "longitude": "135.4382107",
        "latitude": "34.69432106",
        "address": "",
        "category": "公衆トイレ/車いす対応公衆便所",
        "details": "",
        "districtan": "西淀川区",
        "facility": "新淀川公園　公衆トイレ",
        "facility_and_kana": "新淀川公園　公衆トイレ（しんよどがわこうえん　こうしゅうといれ）",
        "facility_kana": "しんよどがわこうえん　こうしゅうといれ",
        "large_class": "公衆トイレ",
        "short_class": "車いす対応公衆便所"
    },
    {
        "longitude": "135.443451",
        "latitude": "34.69701764",
        "address": "",
        "category": "公衆トイレ/車いす対応公衆便所",
        "details": "",
        "districtan": "西淀川区",
        "facility": "福町西公園　公衆トイレ",
        "facility_and_kana": "福町西公園　公衆トイレ（ふくまちにしこうえん　こうしゅうといれ）",
        "facility_kana": "ふくまちにしこうえん　こうしゅうといれ",
        "large_class": "公衆トイレ",
        "short_class": "車いす対応公衆便所"
    },
    {
        "longitude": "135.4584531",
        "latitude": "34.69151769",
        "address": "",
        "category": "公衆トイレ/車いす対応公衆便所",
        "details": "",
        "districtan": "此花区",
        "facility": "高見公園　公衆トイレ",
        "facility_and_kana": "高見公園　公衆トイレ（たかみこうえん　こうしゅうといれ）",
        "facility_kana": "たかみこうえん　こうしゅうといれ",
        "large_class": "公衆トイレ",
        "short_class": "車いす対応公衆便所"
    },
    {
        "longitude": "135.4652424",
        "latitude": "34.68400778",
        "address": "",
        "category": "公衆トイレ/車いす対応公衆便所",
        "details": "",
        "districtan": "此花区",
        "facility": "西九条公園　公衆トイレ",
        "facility_and_kana": "西九条公園　公衆トイレ（にしくじょうこうえん　こうしゅうといれ）",
        "facility_kana": "にしくじょうこうえん　こうしゅうといれ",
        "large_class": "公衆トイレ",
        "short_class": "車いす対応公衆便所"
    },
    {
        "longitude": "135.4604986",
        "latitude": "34.68881392",
        "address": "",
        "category": "公衆トイレ/車いす対応公衆便所",
        "details": "",
        "districtan": "此花区",
        "facility": "千鳥橋みどり公園　公衆トイレ",
        "facility_and_kana": "千鳥橋みどり公園　公衆トイレ（ちどりばしみどりこうえん　こうしゅうといれ）",
        "facility_kana": "ちどりばしみどりこうえん　こうしゅうといれ",
        "large_class": "公衆トイレ",
        "short_class": "車いす対応公衆便所"
    },
    {
        "longitude": "135.4629314",
        "latitude": "34.68990783",
        "address": "",
        "category": "公衆トイレ/車いす対応公衆便所",
        "details": "",
        "districtan": "此花区",
        "facility": "高見新家公園　公衆トイレ",
        "facility_and_kana": "高見新家公園　公衆トイレ（たかみしんけこうえん　こうしゅうといれ）",
        "facility_kana": "たかみしんけこうえん　こうしゅうといれ",
        "large_class": "公衆トイレ",
        "short_class": "車いす対応公衆便所"
    },
    {
        "longitude": "135.4707899",
        "latitude": "34.68936347",
        "address": "",
        "category": "公衆トイレ/車いす対応公衆便所",
        "details": "",
        "districtan": "福島区",
        "facility": "吉野町公園　公衆トイレ",
        "facility_and_kana": "吉野町公園　公衆トイレ（よしのちょうこうえん　こうしゅうといれ）",
        "facility_kana": "よしのちょうこうえん　こうしゅうといれ",
        "large_class": "公衆トイレ",
        "short_class": "車いす対応公衆便所"
    },
    {
        "longitude": "135.4685646",
        "latitude": "34.68746958",
        "address": "",
        "category": "公衆トイレ/車いす対応公衆便所",
        "details": "",
        "districtan": "福島区",
        "facility": "新家公園　公衆トイレ",
        "facility_and_kana": "新家公園　公衆トイレ（しんけこうえん　こうしゅうといれ）",
        "facility_kana": "しんけこうえん　こうしゅうといれ",
        "large_class": "公衆トイレ",
        "short_class": "車いす対応公衆便所"
    },
    {
        "longitude": "135.4831227",
        "latitude": "34.69047547",
        "address": "",
        "category": "公衆トイレ/車いす対応公衆便所",
        "details": "",
        "districtan": "福島区",
        "facility": "下福島公園　公衆トイレ",
        "facility_and_kana": "下福島公園　公衆トイレ（しもふくしまこうえん　こうしゅうといれ）",
        "facility_kana": "しもふくしまこうえん　こうしゅうといれ",
        "large_class": "公衆トイレ",
        "short_class": "車いす対応公衆便所"
    },
    {
        "longitude": "135.473305",
        "latitude": "34.69182531",
        "address": "",
        "category": "公衆トイレ/車いす対応公衆便所",
        "details": "",
        "districtan": "旭区",
        "facility": "江成公園　公衆トイレ",
        "facility_and_kana": "江成公園　公衆トイレ（えなりこうえん　こうしゅうといれ）",
        "facility_kana": "えなりこうえん　こうしゅうといれ",
        "large_class": "公衆トイレ",
        "short_class": "車いす対応公衆便所"
    },
    {
        "longitude": "135.4702105",
        "latitude": "34.69530783",
        "address": "",
        "category": "公衆トイレ/車いす対応公衆便所",
        "details": "",
        "districtan": "福島区",
        "facility": "海老江公園　公衆トイレ",
        "facility_and_kana": "海老江公園　公衆トイレ（えびえこうえん　こうしゅうといれ）",
        "facility_kana": "えびえこうえん　こうしゅうといれ",
        "large_class": "公衆トイレ",
        "short_class": "車いす対応公衆便所"
    },
    {
        "longitude": "135.4850064",
        "latitude": "34.69587542",
        "address": "",
        "category": "公衆トイレ/車いす対応公衆便所",
        "details": "",
        "districtan": "福島区",
        "facility": "福島公園　公衆トイレ",
        "facility_and_kana": "福島公園　公衆トイレ（ふくしまこうえん　こうしゅうといれ）",
        "facility_kana": "ふくしまこうえん　こうしゅうといれ",
        "large_class": "公衆トイレ",
        "short_class": "車いす対応公衆便所"
    },
    {
        "longitude": "135.4810779",
        "latitude": "34.69679975",
        "address": "",
        "category": "公衆トイレ/車いす対応公衆便所",
        "details": "",
        "districtan": "都島区",
        "facility": "鷺洲中公園　公衆トイレ",
        "facility_and_kana": "鷺洲中公園　公衆トイレ（さぎすなかこうえん　こうしゅうといれ）",
        "facility_kana": "さぎすなかこうえん　こうしゅうといれ",
        "large_class": "公衆トイレ",
        "short_class": "車いす対応公衆便所"
    },
    {
        "longitude": "135.4925455",
        "latitude": "34.64635167",
        "address": "",
        "category": "公衆トイレ/車いす対応公衆便所",
        "details": "",
        "districtan": "西成区",
        "facility": "鶴見橋中央公園　公衆トイレ",
        "facility_and_kana": "鶴見橋中央公園　公衆トイレ（つるみばしちゅうおうこうえん　こうしゅうといれ）",
        "facility_kana": "つるみばしちゅうおうこうえん　こうしゅうといれ",
        "large_class": "公衆トイレ",
        "short_class": "車いす対応公衆便所"
    },
    {
        "longitude": "135.5069743",
        "latitude": "34.64938308",
        "address": "",
        "category": "公衆トイレ/車いす対応公衆便所",
        "details": "",
        "districtan": "天王寺区",
        "facility": "天王寺動物園　公衆トイレ１",
        "facility_and_kana": "天王寺動物園　公衆トイレ１（てんのうじどうぶつえん　こうしゅうといれ１）",
        "facility_kana": "てんのうじどうぶつえん　こうしゅうといれ１",
        "large_class": "公衆トイレ",
        "short_class": "車いす対応公衆便所"
    },
    {
        "longitude": "135.5099609",
        "latitude": "34.64928258",
        "address": "",
        "category": "公衆トイレ/車いす対応公衆便所",
        "details": "",
        "districtan": "天王寺区",
        "facility": "天王寺公園　公衆トイレ１",
        "facility_and_kana": "天王寺公園　公衆トイレ１（てんのうじこうえｎ　こうしゅうといれ１）",
        "facility_kana": "てんのうじこうえｎ　こうしゅうといれ１",
        "large_class": "公衆トイレ",
        "short_class": "車いす対応公衆便所"
    },
    {
        "longitude": "135.5118771",
        "latitude": "34.64801667",
        "address": "",
        "category": "公衆トイレ/車いす対応公衆便所",
        "details": "",
        "districtan": "天王寺区",
        "facility": "天王寺公園　公衆トイレ２",
        "facility_and_kana": "天王寺公園　公衆トイレ２（てんのうじこうえん　こうしゅうといれ２）",
        "facility_kana": "てんのうじこうえん　こうしゅうといれ２",
        "large_class": "公衆トイレ",
        "short_class": "車いす対応公衆便所"
    },
    {
        "longitude": "135.5110652",
        "latitude": "34.64928111",
        "address": "",
        "category": "公衆トイレ/車いす対応公衆便所",
        "details": "",
        "districtan": "天王寺区",
        "facility": "天王寺公園　公衆トイレ３",
        "facility_and_kana": "天王寺公園　公衆トイレ３（てんのうじこうえん　こうしゅうといれ３）",
        "facility_kana": "てんのうじこうえん　こうしゅうといれ３",
        "large_class": "公衆トイレ",
        "short_class": "車いす対応公衆便所"
    },
    {
        "longitude": "135.5097137",
        "latitude": "34.64963064",
        "address": "",
        "category": "公衆トイレ/車いす対応公衆便所",
        "details": "",
        "districtan": "天王寺区",
        "facility": "天王寺公園　公衆トイレ４",
        "facility_and_kana": "天王寺公園　公衆トイレ４（てんのうじこうえん　こうしゅうといれ４）",
        "facility_kana": "てんのうじこうえん　こうしゅうといれ４",
        "large_class": "公衆トイレ",
        "short_class": "車いす対応公衆便所"
    },
    {
        "longitude": "135.5072849",
        "latitude": "34.6498745",
        "address": "",
        "category": "公衆トイレ/車いす対応公衆便所",
        "details": "",
        "districtan": "天王寺区",
        "facility": "天王寺動物園　公衆トイレ２",
        "facility_and_kana": "天王寺動物園　公衆トイレ２（てんのうじどうぶつえん　こうしゅうといれ２）",
        "facility_kana": "てんのうじどうぶつえん　こうしゅうといれ２",
        "large_class": "公衆トイレ",
        "short_class": "車いす対応公衆便所"
    },
    {
        "longitude": "135.5084592",
        "latitude": "34.64963692",
        "address": "",
        "category": "公衆トイレ/車いす対応公衆便所",
        "details": "",
        "districtan": "天王寺区",
        "facility": "天王寺動物園　公衆トイレ３",
        "facility_and_kana": "天王寺動物園　公衆トイレ３（てんのうじどうぶつえん　こうしゅうといれ３）",
        "facility_kana": "てんのうじどうぶつえん　こうしゅうといれ３",
        "large_class": "公衆トイレ",
        "short_class": "車いす対応公衆便所"
    },
    {
        "longitude": "135.5122025",
        "latitude": "34.65190006",
        "address": "",
        "category": "公衆トイレ/車いす対応公衆便所",
        "details": "",
        "districtan": "天王寺区",
        "facility": "天王寺公園　公衆トイレ５",
        "facility_and_kana": "天王寺公園　公衆トイレ５（てんのうじこうえん　こうしゅうといれ５）",
        "facility_kana": "てんのうじこうえん　こうしゅうといれ５",
        "large_class": "公衆トイレ",
        "short_class": "車いす対応公衆便所"
    },
    {
        "longitude": "135.5086384",
        "latitude": "34.65039292",
        "address": "",
        "category": "公衆トイレ/車いす対応公衆便所",
        "details": "",
        "districtan": "天王寺区",
        "facility": "天王寺動物園　公衆トイレ４",
        "facility_and_kana": "天王寺動物園　公衆トイレ４（てんのうじどうぶつえん　こうしゅうといれ４）",
        "facility_kana": "てんのうじどうぶつえん　こうしゅうといれ４",
        "large_class": "公衆トイレ",
        "short_class": "車いす対応公衆便所"
    },
    {
        "longitude": "135.5074243",
        "latitude": "34.65053997",
        "address": "",
        "category": "公衆トイレ/車いす対応公衆便所",
        "details": "",
        "districtan": "天王寺区",
        "facility": "天王寺動物園　公衆トイレ５",
        "facility_and_kana": "天王寺動物園　公衆トイレ５（てんのうじどうぶつえん　こうしゅうといれ５）",
        "facility_kana": "てんのうじどうぶつえん　こうしゅうといれ５",
        "large_class": "公衆トイレ",
        "short_class": "車いす対応公衆便所"
    },
    {
        "longitude": "135.5074762",
        "latitude": "34.65094014",
        "address": "",
        "category": "公衆トイレ/車いす対応公衆便所",
        "details": "",
        "districtan": "天王寺区",
        "facility": "天王寺動物園　公衆トイレ６",
        "facility_and_kana": "天王寺動物園　公衆トイレ６（てんのうじどうぶつえん　こうしゅうといれ６）",
        "facility_kana": "てんのうじどうぶつえん　こうしゅうといれ６",
        "large_class": "公衆トイレ",
        "short_class": "車いす対応公衆便所"
    },
    {
        "longitude": "135.5082914",
        "latitude": "34.65138869",
        "address": "",
        "category": "公衆トイレ/車いす対応公衆便所",
        "details": "",
        "districtan": "天王寺区",
        "facility": "天王寺動物園　公衆トイレ７",
        "facility_and_kana": "天王寺動物園　公衆トイレ７（てんのうじどうぶつえん　こうしゅうといれ７）",
        "facility_kana": "てんのうじどうぶつえん　こうしゅうといれ７",
        "large_class": "公衆トイレ",
        "short_class": "車いす対応公衆便所"
    },
    {
        "longitude": "135.5094644",
        "latitude": "34.65137094",
        "address": "",
        "category": "公衆トイレ/車いす対応公衆便所",
        "details": "",
        "districtan": "天王寺区",
        "facility": "天王寺動物園　公衆トイレ８",
        "facility_and_kana": "天王寺動物園　公衆トイレ８（てんのうじどうぶつえん　こうしゅうといれ８）",
        "facility_kana": "てんのうじどうぶつえん　こうしゅうといれ８",
        "large_class": "公衆トイレ",
        "short_class": "車いす対応公衆便所"
    },
    {
        "longitude": "135.5092293",
        "latitude": "34.65312786",
        "address": "",
        "category": "公衆トイレ/車いす対応公衆便所",
        "details": "",
        "districtan": "天王寺区",
        "facility": "天王寺動物園　公衆トイレ９",
        "facility_and_kana": "天王寺動物園　公衆トイレ９（てんのじどうぶつえん　こうしゅうといれ９）",
        "facility_kana": "てんのじどうぶつえん　こうしゅうといれ９",
        "large_class": "公衆トイレ",
        "short_class": "車いす対応公衆便所"
    },
    {
        "longitude": "135.5083804",
        "latitude": "34.65376114",
        "address": "",
        "category": "公衆トイレ/車いす対応公衆便所",
        "details": "",
        "districtan": "天王寺区",
        "facility": "天王寺動物園　公衆トイレ１０",
        "facility_and_kana": "天王寺動物園　公衆トイレ１０（てんのうじどうぶつえん　こうしゅうといれ１０）",
        "facility_kana": "てんのうじどうぶつえん　こうしゅうといれ１０",
        "large_class": "公衆トイレ",
        "short_class": "車いす対応公衆便所"
    },
    {
        "longitude": "135.4931371",
        "latitude": "34.66190664",
        "address": "",
        "category": "公衆トイレ/車いす対応公衆便所",
        "details": "",
        "districtan": "浪速区",
        "facility": "浪速公園　公衆トイレ",
        "facility_and_kana": "浪速公園　公衆トイレ（なにわこうえん　こうしゅうといれ）",
        "facility_kana": "なにわこうえん　こうしゅうといれ",
        "large_class": "公衆トイレ",
        "short_class": "車いす対応公衆便所"
    },
    {
        "longitude": "135.529721",
        "latitude": "34.659994",
        "address": "",
        "category": "公衆トイレ/車いす対応公衆便所",
        "details": "",
        "districtan": "生野区",
        "facility": "桃谷公園　公衆トイレ",
        "facility_and_kana": "桃谷公園　公衆トイレ（ももだにこうえん　こうしゅうといれ）",
        "facility_kana": "ももだにこうえん　こうしゅうといれ",
        "large_class": "公衆トイレ",
        "short_class": "車いす対応公衆便所"
    },
    {
        "longitude": "135.5605801",
        "latitude": "34.64490686",
        "address": "",
        "category": "公衆トイレ/車いす対応公衆便所",
        "details": "",
        "districtan": "生野区",
        "facility": "巽東緑地　公衆トイレ",
        "facility_and_kana": "巽東緑地　公衆トイレ（たつみひがしりょくち　こうしゅうといれ）",
        "facility_kana": "たつみひがしりょくち　こうしゅうといれ",
        "large_class": "公衆トイレ",
        "short_class": "車いす対応公衆便所"
    },
    {
        "longitude": "135.5465341",
        "latitude": "34.65178256",
        "address": "",
        "category": "公衆トイレ/車いす対応公衆便所",
        "details": "",
        "districtan": "生野区",
        "facility": "巽公園　公衆トイレ",
        "facility_and_kana": "巽公園　公衆トイレ（たつみこうえん　こうしゅうといれ）",
        "facility_kana": "たつみこうえん　こうしゅうといれ",
        "large_class": "公衆トイレ",
        "short_class": "車いす対応公衆便所"
    },
    {
        "longitude": "135.5032923",
        "latitude": "34.66890839",
        "address": "",
        "category": "公衆トイレ/車いす対応公衆便所",
        "details": "便器数　　男性用　小：３　　車椅子対応：１",
        "districtan": "中央区",
        "facility": "太左衛門橋",
        "facility_and_kana": "太左衛門橋（たざえもんばし）",
        "facility_kana": "たざえもんばし",
        "large_class": "公衆トイレ",
        "short_class": "車いす対応公衆便所"
    },
    {
        "longitude": "135.5043709",
        "latitude": "34.66919983",
        "address": "",
        "category": "公衆トイレ/車いす対応公衆便所",
        "details": "便器数　　男性用　小：１　　女性用　洋：１　　車椅子対応：１",
        "districtan": "中央区",
        "facility": "相合橋",
        "facility_and_kana": "相合橋（あいあうばし）",
        "facility_kana": "あいあうばし",
        "large_class": "公衆トイレ",
        "short_class": "車いす対応公衆便所"
    },
    {
        "longitude": "135.5281747",
        "latitude": "34.67058364",
        "address": "",
        "category": "公衆トイレ/車いす対応公衆便所",
        "details": "",
        "districtan": "天王寺区",
        "facility": "真田山公園　公衆トイレ１",
        "facility_and_kana": "真田山公園　公衆トイレ１（さなだやまこうえん　こうしゅうといれ１）",
        "facility_kana": "さなだやまこうえん　こうしゅうといれ１",
        "large_class": "公衆トイレ",
        "short_class": "車いす対応公衆便所"
    },
    {
        "longitude": "135.5328653",
        "latitude": "34.66962761",
        "address": "",
        "category": "公衆トイレ/車いす対応公衆便所",
        "details": "",
        "districtan": "東成区",
        "facility": "東小橋公園　公衆トイレ",
        "facility_and_kana": "東小橋公園　公衆トイレ（ひがしこはしこうえん　こうしゅうといれ）",
        "facility_kana": "ひがしこはしこうえん　こうしゅうといれ",
        "large_class": "公衆トイレ",
        "short_class": "車いす対応公衆便所"
    },
    {
        "longitude": "135.533473",
        "latitude": "34.673189",
        "address": "",
        "category": "公衆トイレ/車いす対応公衆便所",
        "details": "",
        "districtan": "東成区",
        "facility": "東小橋北公園　公衆トイレ",
        "facility_and_kana": "東小橋北公園　公衆トイレ（ひがしこはしきたこうえん　こうしゅうといれ）",
        "facility_kana": "ひがしこはしきたこうえん　こうしゅうといれ",
        "large_class": "公衆トイレ",
        "short_class": "車いす対応公衆便所"
    },
    {
        "longitude": "135.5296489",
        "latitude": "34.68237194",
        "address": "",
        "category": "公衆トイレ/車いす対応公衆便所",
        "details": "",
        "districtan": "中央区",
        "facility": "大阪城公園　公衆トイレ１１",
        "facility_and_kana": "大阪城公園　公衆トイレ１１（おおさかじょうこうえん　こうしゅうといれ１１）",
        "facility_kana": "おおさかじょうこうえん　こうしゅうといれ１１",
        "large_class": "公衆トイレ",
        "short_class": "車いす対応公衆便所"
    },
    {
        "longitude": "135.5329778",
        "latitude": "34.68231692",
        "address": "",
        "category": "公衆トイレ/車いす対応公衆便所",
        "details": "",
        "districtan": "中央区",
        "facility": "大阪城公園　公衆トイレ１４",
        "facility_and_kana": "大阪城公園　公衆トイレ１４（おおさかじょうこうえん　こうしゅうといれ１４）",
        "facility_kana": "おおさかじょうこうえん　こうしゅうといれ１４",
        "large_class": "公衆トイレ",
        "short_class": "車いす対応公衆便所"
    },
    {
        "longitude": "135.4894201",
        "latitude": "34.68352875",
        "address": "",
        "category": "公衆トイレ/車いす対応公衆便所",
        "details": "",
        "districtan": "西区",
        "facility": "靭公園　公衆トイレ１",
        "facility_and_kana": "靭公園　公衆トイレ１（うつぼこうえん　こうしゅうといれ１）",
        "facility_kana": "うつぼこうえん　こうしゅうといれ１",
        "large_class": "公衆トイレ",
        "short_class": "車いす対応公衆便所"
    },
    {
        "longitude": "135.4931196",
        "latitude": "34.68527942",
        "address": "",
        "category": "公衆トイレ/車いす対応公衆便所",
        "details": "",
        "districtan": "西区",
        "facility": "靭公園　公衆トイレ２",
        "facility_and_kana": "靭公園　公衆トイレ２（うつぼこうえん　こうしゅうといれ２）",
        "facility_kana": "うつぼこうえん　こうしゅうといれ２",
        "large_class": "公衆トイレ",
        "short_class": "車いす対応公衆便所"
    },
    {
        "longitude": "135.4950438",
        "latitude": "34.68632981",
        "address": "",
        "category": "公衆トイレ/車いす対応公衆便所",
        "details": "",
        "districtan": "西区",
        "facility": "靭公園　公衆トイレ３",
        "facility_and_kana": "靭公園　公衆トイレ３（うつぼこうえん　こうしゅうといれ３）",
        "facility_kana": "うつぼこうえん　こうしゅうといれ３",
        "large_class": "公衆トイレ",
        "short_class": "車いす対応公衆便所"
    },
    {
        "longitude": "135.4961366",
        "latitude": "34.68605244",
        "address": "",
        "category": "公衆トイレ/車いす対応公衆便所",
        "details": "",
        "districtan": "西区",
        "facility": "靭公園　公衆トイレ４",
        "facility_and_kana": "靭公園　公衆トイレ４（うつぼこうえん　こうしゅうといれ４）",
        "facility_kana": "うつぼこうえん　こうしゅうといれ４",
        "large_class": "公衆トイレ",
        "short_class": "車いす対応公衆便所"
    },
    {
        "longitude": "135.5125798",
        "latitude": "34.69232167",
        "address": "",
        "category": "公衆トイレ/車いす対応公衆便所",
        "details": "",
        "districtan": "北区",
        "facility": "南天満公園　公衆トイレ１",
        "facility_and_kana": "南天満公園　公衆トイレ１（みなみてんまこうえん　こうしゅうといれ１）",
        "facility_kana": "みなみてんまこうえん　こうしゅうといれ１",
        "large_class": "公衆トイレ",
        "short_class": "車いす対応公衆便所"
    },
    {
        "longitude": "135.5262627",
        "latitude": "34.68659575",
        "address": "",
        "category": "公衆トイレ/車いす対応公衆便所",
        "details": "",
        "districtan": "中央区",
        "facility": "大阪城公園　公衆トイレ１",
        "facility_and_kana": "大阪城公園　公衆トイレ１（おおさかじょうこうえん　こうしゅうといれ１）",
        "facility_kana": "おおさかじょうこうえん　こうしゅうといれ１",
        "large_class": "公衆トイレ",
        "short_class": "車いす対応公衆便所"
    },
    {
        "longitude": "135.5253949",
        "latitude": "34.68676711",
        "address": "",
        "category": "公衆トイレ/車いす対応公衆便所",
        "details": "",
        "districtan": "中央区",
        "facility": "大阪城公園　公衆トイレ２",
        "facility_and_kana": "大阪城公園　公衆トイレ２（おおさかじょうこうえん　こうしゅうといれ２）",
        "facility_kana": "おおさかじょうこうえん　こうしゅうといれ２",
        "large_class": "公衆トイレ",
        "short_class": "車いす対応公衆便所"
    },
    {
        "longitude": "135.5251011",
        "latitude": "34.68572928",
        "address": "",
        "category": "公衆トイレ/車いす対応公衆便所",
        "details": "",
        "districtan": "中央区",
        "facility": "大阪城公園　公衆トイレ３",
        "facility_and_kana": "大阪城公園　公衆トイレ３（おおさかじょうこうえん　こうしゅうといれ３）",
        "facility_kana": "おおさかじょうこうえん　こうしゅうといれ３",
        "large_class": "公衆トイレ",
        "short_class": "車いす対応公衆便所"
    },
    {
        "longitude": "135.5255243",
        "latitude": "34.68447464",
        "address": "",
        "category": "公衆トイレ/車いす対応公衆便所",
        "details": "",
        "districtan": "中央区",
        "facility": "大阪城公園　公衆トイレ７",
        "facility_and_kana": "大阪城公園　公衆トイレ７（おおさかじょうこうえん　こうしゅうといれ７）",
        "facility_kana": "おおさかじょうこうえん　こうしゅうといれ７",
        "large_class": "公衆トイレ",
        "short_class": "車いす対応公衆便所"
    },
    {
        "longitude": "135.5215822",
        "latitude": "34.6856255",
        "address": "",
        "category": "公衆トイレ/車いす対応公衆便所",
        "details": "",
        "districtan": "中央区",
        "facility": "大阪城公園　公衆トイレ８",
        "facility_and_kana": "大阪城公園　公衆トイレ８（おおさかじょうこうえん　こうしゅうといれ８）",
        "facility_kana": "おおさかじょうこうえん　こうしゅうといれ８",
        "large_class": "公衆トイレ",
        "short_class": "車いす対応公衆便所"
    },
    {
        "longitude": "135.5220168",
        "latitude": "34.68354794",
        "address": "",
        "category": "公衆トイレ/車いす対応公衆便所",
        "details": "",
        "districtan": "中央区",
        "facility": "大阪城公園　公衆トイレ９",
        "facility_and_kana": "大阪城公園　公衆トイレ９（大阪城公園　公衆トイレ９）",
        "facility_kana": "大阪城公園　公衆トイレ９",
        "large_class": "公衆トイレ",
        "short_class": "車いす対応公衆便所"
    },
    {
        "longitude": "135.5261899",
        "latitude": "34.68972281",
        "address": "",
        "category": "公衆トイレ/車いす対応公衆便所",
        "details": "",
        "districtan": "中央区",
        "facility": "大阪城公園　公衆トイレ５",
        "facility_and_kana": "大阪城公園　公衆トイレ５（おおさかじょうこうえん　こうしゅうといれ５）",
        "facility_kana": "おおさかじょうこうえん　こうしゅうといれ５",
        "large_class": "公衆トイレ",
        "short_class": "車いす対応公衆便所"
    },
    {
        "longitude": "135.5228758",
        "latitude": "34.6884025",
        "address": "",
        "category": "公衆トイレ/車いす対応公衆便所",
        "details": "",
        "districtan": "中央区",
        "facility": "大阪城公園　公衆トイレ６",
        "facility_and_kana": "大阪城公園　公衆トイレ６（おおさかじょうこうえん　こうしゅうといれ６）",
        "facility_kana": "おおさかじょうこうえん　こうしゅうといれ６",
        "large_class": "公衆トイレ",
        "short_class": "車いす対応公衆便所"
    },
    {
        "longitude": "135.5283081",
        "latitude": "34.68676711",
        "address": "",
        "category": "公衆トイレ/車いす対応公衆便所",
        "details": "",
        "districtan": "中央区",
        "facility": "大阪城公園　公衆トイレ４",
        "facility_and_kana": "大阪城公園　公衆トイレ４（おおさかじょうこうえん　こうしゅうといれ４）",
        "facility_kana": "おおさかじょうこうえん　こうしゅうといれ４",
        "large_class": "公衆トイレ",
        "short_class": "車いす対応公衆便所"
    },
    {
        "longitude": "135.5304298",
        "latitude": "34.68426225",
        "address": "",
        "category": "公衆トイレ/車いす対応公衆便所",
        "details": "",
        "districtan": "中央区",
        "facility": "大阪城公園　公衆トイレ１２",
        "facility_and_kana": "大阪城公園　公衆トイレ１２（おおさかじょうこうえん　こうしゅうといれ１２）",
        "facility_kana": "おおさかじょうこうえん　こうしゅうといれ１２",
        "large_class": "公衆トイレ",
        "short_class": "車いす対応公衆便所"
    },
    {
        "longitude": "135.5320905",
        "latitude": "34.68362664",
        "address": "",
        "category": "公衆トイレ/車いす対応公衆便所",
        "details": "",
        "districtan": "中央区",
        "facility": "大阪城公園　公衆トイレ１３",
        "facility_and_kana": "大阪城公園　公衆トイレ１３（おおさかじょうこうえん　こうしゅうといれ１３）",
        "facility_kana": "おおさかじょうこうえん　こうしゅうといれ１３",
        "large_class": "公衆トイレ",
        "short_class": "車いす対応公衆便所"
    },
    {
        "longitude": "135.5332284",
        "latitude": "34.68634089",
        "address": "",
        "category": "公衆トイレ/車いす対応公衆便所",
        "details": "",
        "districtan": "中央区",
        "facility": "大阪城公園　公衆トイレ１５",
        "facility_and_kana": "大阪城公園　公衆トイレ１５（おおさかじょうこうえん　こうしゅうといれ１５）",
        "facility_kana": "おおさかじょうこうえん　こうしゅうといれ１５",
        "large_class": "公衆トイレ",
        "short_class": "車いす対応公衆便所"
    },
    {
        "longitude": "135.5314713",
        "latitude": "34.68942736",
        "address": "",
        "category": "公衆トイレ/車いす対応公衆便所",
        "details": "",
        "districtan": "中央区",
        "facility": "大阪城公園　公衆トイレ１７",
        "facility_and_kana": "大阪城公園　公衆トイレ１７（おおさかじょうこうえん　こうしゅうといれ１７）",
        "facility_kana": "おおさかじょうこうえん　こうしゅうといれ１７",
        "large_class": "公衆トイレ",
        "short_class": "車いす対応公衆便所"
    },
    {
        "longitude": "135.5285224",
        "latitude": "34.68990083",
        "address": "",
        "category": "公衆トイレ/車いす対応公衆便所",
        "details": "",
        "districtan": "中央区",
        "facility": "大阪城公園　公衆トイレ１８",
        "facility_and_kana": "大阪城公園　公衆トイレ１８（おおさかじょうこうえん　こうしゅうといれ１８）",
        "facility_kana": "おおさかじょうこうえん　こうしゅうといれ１８",
        "large_class": "公衆トイレ",
        "short_class": "車いす対応公衆便所"
    },